ipmj~asXFVORUA~@|fyipyTAA@pgyfp}$GPGGA,125332.00,3625.79524874,N,12325.70534912,E,1,07,1.2,12.564,M,9.764,M,,*68
$PTNL,GGK,125332.00,101318,3625.79524874,N,12325.70534912,E,1,07,2.0,EHT22.328,M*43
$GPVTG,35.67,T,,M,0.66,N,1.21,K,A*08
$GPGST,125332.00,5.779,2.501,1.239,168.3,2.462,1.315,4.509*50
$PTNL,PJK,125332.00,101318,,,,,1,07,2.0,,M*20
$PTNL,PJT,WGS84,NONE*21
$PTNL,VGK,125332.00,101318,00000.000,00000.000,00000.000,0,07,2.0,M*04
$PTNL,VHD,125332.00,101318,0.000,0.000,0.000,0.000,0.000,0.000,1,07,2.0,M*07
$GPGSV,3,1,10,31,54,294,48,14,68,333,45,32,80,080,50,26,27,213,42*70
$GPGSV,3,2,10,25,53,052,49,29,22,117,45,10,27,190,17,12,15,040,30*75
$GPGSV,3,3,10,42,42,146,38,50,42,146,38*7B
$PTNL,AVR,125332.00,+0.0000,Yaw,+0.0000,Tilt,,,0.000,0,0.0,00*33
$GPZDA,125332.011,13,10,2018,00,00*5A
$GPHDT,,*4F
$GPROT,,V*08
$GPGSA,A,3,14,25,31,32,12,26,29,,,,,,2.0,1.2,1.6*39
$GPRMC,125332.00,A,3625.79524874,N,12325.70534912,E,0.655,35.667,131018,999.9000,E,A*30
$GPGLL,3625.79524874,N,12325.70534912,E,125332.00,A,A*61
$GPGRS,125332.00,1,-1.2,-0.1,-0.9,-0.3,3.7,-0.9,-0.2,,,,,*63
$PTNLDG,47.0,11.0,318.0,200,0,4,0,0,,,*38
$PFUGDP,GP,125332.00,3625.79525,N,12325.70535,E,07,1,AN,2.5,1.2,168,5.8*16
k~\kS^D`yc~_GGxBHzcN~@hHJ@PwYFV$GPGGA,125333.00,3625.79551037,N,12325.70542839,E,2,08,1.2,12.337,M,9.764,M,9.0,0753*47
$PTNL,GGK,125333.00,101318,3625.79551037,N,12325.70542839,E,13,08,2.0,EHT22.101,M*73
$GPVTG,18.63,T,,M,0.77,N,1.43,K,D*02
$GPGST,125333.00,1.438,1.948,0.925,168.4,1.917,0.987,3.516*54
$PTNL,PJK,125333.00,101318,,,,,13,08,2.0,,M*1D
$PTNL,PJT,WGS84,NONE*21
$PTNL,VGK,125333.00,101318,00000.000,00000.000,00000.000,0,08,2.0,M*0A
$PTNL,VHD,125333.00,101318,0.000,0.000,0.000,0.000,0.000,0.000,13,08,2.0,M*3A
$GPGSV,3,1,10,31,54,294,48,14,68,333,45,32,80,080,50,26,27,213,41*73
$GPGSV,3,2,10,25,53,052,49,29,22,117,45,10,27,190,29,12,15,040,28*71
$GPGSV,3,3,10,42,42,146,36,50,42,146,36*7B
$PTNL,AVR,125333.00,+0.0000,Yaw,+0.0000,Tilt,,,0.000,0,0.0,00*32
$GPZDA,125333.011,13,10,2018,00,00*5B
$GPHDT,,*4F
$GPROT,,V*08
$GPGSA,A,3,10,14,25,31,32,12,26,29,,,,,2.0,1.2,1.6*38
$GPRMC,125333.00,A,3625.79551037,N,12325.70542839,E,0.772,18.634,131018,999.9000,E,D*3D
$GPGLL,3625.79551037,N,12325.70542839,E,125333.00,A,D*61
$GPGRS,125333.00,1,1.0,0.2,0.5,0.2,-0.2,1.8,0.4,-0.9,,,,*49
$PTNLDG,45.0,10.0,318.0,200,0,4,1,0,,,*3A
$PFUGDP,GP,125333.00,3625.79551,N,12325.70543,E,08,6,DN,1.9,0.9,168,1.4*15
OFk~hWYFVOFk^OOgyipmj^wofyipyTa$GPGGA,125334.00,3625.79585694,N,12325.70523549,E,2,05,2.1,12.374,M,9.764,M,7.0,0753*4F
$PTNL,GGK,125334.00,101318,3625.79585694,N,12325.70523549,E,13,05,4.0,EHT22.138,M*7E
$GPVTG,19.04,T,,M,0.72,N,1.34,K,D*07
$GPGST,125334.00,0.751,2.002,0.934,167.8,1.967,1.006,3.553*5E
$PTNL,PJK,125334.00,101318,,,,,13,05,4.0,,M*11
$PTNL,PJT,WGS84,NONE*21
$PTNL,VGK,125334.00,101318,00000.000,00000.000,00000.000,0,05,4.0,M*06
$PTNL,VHD,125334.00,101318,0.000,0.000,0.000,0.000,0.000,0.000,13,05,4.0,M*36
$GPGSV,3,1,10,31,54,294,47,14,68,333,45,32,80,080,50,26,27,213,39*73
$GPGSV,3,2,10,25,53,052,49,29,22,117,45,10,27,190,32,12,15,040,24*77
$GPGSV,3,3,10,42,42,146,36,50,42,146,38*75
$PTNL,AVR,125334.00,+0.0000,Yaw,+0.0000,Tilt,,,0.000,0,0.0,00*35
$GPZDA,125334.011,13,10,2018,00,00*5C
$GPHDT,,*4F
$GPROT,,V*08
$GPGSA,A,3,25,31,32,26,29,,,,,,,,4.0,2.1,3.4*39
$GPRMC,125334.00,A,3625.79585694,N,12325.70523549,E,0.723,19.041,131018,999.9000,E,D*30
$GPGLL,3625.79585694,N,12325.70523549,E,125334.00,A,D*6D
$GPGRS,125334.00,1,0.6,0.0,-0.1,0.5,-0.4,,,,,,,*64
$PTNLDG,46.0,9.0,318.0,200,0,4,1,0,,,*01
$PFUGDP,GP,125334.00,3625.79586,N,12325.70524,E,05,4,DN,2.0,0.9,168,0.8*11
l@HXFVORUa\@TXFVORUaz@Dgyipmj^}O$GPGGA,125335.00,3625.79611734,N,12325.70523699,E,2,05,2.1,12.119,M,9.764,M,8.0,0753*43
$PTNL,GGK,125335.00,101318,3625.79611734,N,12325.70523699,E,13,05,4.0,EHT21.883,M*7E
$GPVTG,26.59,T,,M,0.62,N,1.16,K,D*02
$GPGST,125335.00,0.659,2.007,0.936,167.9,1.972,1.008,3.560*5A
$PTNL,PJK,125335.00,101318,,,,,13,05,4.0,,M*10
$PTNL,PJT,WGS84,NONE*21
$PTNL,VGK,125335.00,101318,00000.000,00000.000,00000.000,0,05,4.0,M*07
$PTNL,VHD,125335.00,101318,0.000,0.000,0.000,0.000,0.000,0.000,13,05,4.0,M*37
$GPGSV,3,1,10,31,54,294,47,14,68,333,45,32,80,080,50,26,27,213,41*7C
$GPGSV,3,2,10,25,53,052,49,29,22,117,45,10,27,190,32,12,15,040,27*74
$GPGSV,3,3,10,42,42,146,38,50,42,146,37*74
$PTNL,AVR,125335.00,+0.0000,Yaw,+0.0000,Tilt,,,0.000,0,0.0,00*34
$GPZDA,125335.011,13,10,2018,00,00*5D
$GPHDT,,*4F
$GPROT,,V*08
$GPGSA,A,3,25,31,32,26,29,,,,,,,,4.0,2.1,3.4*39
$GPRMC,125335.00,A,3625.79611734,N,12325.70523699,E,0.625,26.586,131018,999.9000,E,D*3F
$GPGLL,3625.79611734,N,12325.70523699,E,125335.00,A,D*67
$GPGRS,125335.00,1,0.4,-0.3,-0.2,0.2,-0.5,,,,,,,*4C
$PTNLDG,45.0,10.0,318.0,200,0,4,1,0,,,*3A
$PFUGDP,GP,125335.00,3625.79612,N,12325.70524,E,05,4,DN,2.0,0.9,168,0.7*11
gyipmj^YCXFYOBTaVTP@u_Aa_jOK}GL$GPGGA,125336.00,3625.79631818,N,12325.70531607,E,2,05,2.1,12.068,M,9.764,M,9.0,0753*41
$PTNL,GGK,125336.00,101318,3625.79631818,N,12325.70531607,E,13,05,4.0,EHT21.832,M*70
$GPVTG,31.00,T,,M,0.66,N,1.22,K,D*0B
$GPGST,125336.00,0.610,2.013,0.939,167.9,1.978,1.011,3.569*55
$PTNL,PJK,125336.00,101318,,,,,13,05,4.0,,M*13
$PTNL,PJT,WGS84,NONE*21
$PTNL,VGK,125336.00,101318,00000.000,00000.000,00000.000,0,05,4.0,M*04
$PTNL,VHD,125336.00,101318,0.000,0.000,0.000,0.000,0.000,0.000,13,05,4.0,M*34
$GPGSV,3,1,10,31,54,294,46,14,68,333,45,32,80,080,50,26,27,213,42*7E
$GPGSV,3,2,10,25,53,052,49,29,22,117,46,10,27,190,34,12,15,040,29*7F
$GPGSV,3,3,10,42,42,146,38,50,42,146,38*7B
$PTNL,AVR,125336.00,+0.0000,Yaw,+0.0000,Tilt,,,0.000,0,0.0,00*37
$GPZDA,125336.011,13,10,2018,00,00*5E
$GPHDT,,*4F
$GPROT,,V*08
$GPGSA,A,3,25,31,32,26,29,,,,,,,,4.0,2.1,3.4*39
$GPRMC,125336.00,A,3625.79631818,N,12325.70531607,E,0.660,31.001,131018,999.9000,E,D*36
$GPGLL,3625.79631818,N,12325.70531607,E,125336.00,A,D*63
$GPGRS,125336.00,1,0.5,-0.3,-0.1,0.3,-0.4,,,,,,,*4D
$PTNLDG,46.0,14.0,318.0,200,0,4,1,0,,,*3D
$PFUGDP,GP,125336.00,3625.79632,N,12325.70532,E,05,4,DN,2.0,0.9,168,0.6*16
@Hf{c@b}J@pfXFVORUaq@hXFVORUaM@`YF$GPGGA,125337.00,3625.79646487,N,12325.70541428,E,2,06,1.4,12.243,M,9.764,M,5.8,0753*48
$PTNL,GGK,125337.00,101318,3625.79646487,N,12325.70541428,E,13,06,2.3,EHT22.007,M*78
$GPVTG,25.80,T,,M,0.69,N,1.28,K,D*03
$GPGST,125337.00,4.916,1.959,1.240,0.9,1.959,1.240,3.667*51
$PTNL,PJK,125337.00,101318,,,,,13,06,2.3,,M*14
$PTNL,PJT,WGS84,NONE*21
$PTNL,VGK,125337.00,101318,00000.000,00000.000,00000.000,0,06,2.3,M*03
$PTNL,VHD,125337.00,101318,0.000,0.000,0.000,0.000,0.000,0.000,13,06,2.3,M*33
$GPGSV,3,1,10,31,54,294,46,14,68,333,44,32,80,080,51,26,27,213,41*7D
$GPGSV,3,2,10,25,53,051,49,29,22,117,46,10,27,190,38,12,15,040,28*71
$GPGSV,3,3,10,42,42,146,38,50,42,146,39*7A
$PTNL,AVR,125337.00,+0.0000,Yaw,+0.0000,Tilt,,,0.000,0,0.0,00*36
$GPZDA,125337.011,13,10,2018,00,00*5F
$GPHDT,,*4F
$GPROT,,V*08
$GPGSA,A,3,10,14,31,32,12,29,,,,,,,2.3,1.4,1.9*31
$GPRMC,125337.00,A,3625.79646487,N,12325.70541428,E,0.693,25.803,131018,999.9000,E,D*36
$GPGLL,3625.79646487,N,12325.70541428,E,125337.00,A,D*60
$GPGRS,125337.00,1,0.3,0.2,0.0,0.1,3.1,-0.1,,,,,,*61
$PTNLDG,45.0,14.0,318.0,200,0,4,1,0,,,*3E
$PFUGDP,GP,125337.00,3625.79646,N,12325.70541,E,06,6,DN,2.0,1.2,001,4.9*1E
VOFk^R{YFVOFk^dSYFVOFk^DcXFVOR$GPGGA,125338.00,3625.79649833,N,12325.70544756,E,2,06,1.4,12.420,M,9.764,M,6.8,0753*44
$PTNL,GGK,125338.00,101318,3625.79649833,N,12325.70544756,E,13,06,2.3,EHT22.184,M*7E
$GPVTG,24.10,T,,M,0.66,N,1.21,K,D*0D
$GPGST,125338.00,5.838,1.964,1.244,0.8,1.964,1.244,3.680*5A
$PTNL,PJK,125338.00,101318,,,,,13,06,2.3,,M*1B
$PTNL,PJT,WGS84,NONE*21
$PTNL,VGK,125338.00,101318,00000.000,00000.000,00000.000,0,06,2.3,M*0C
$PTNL,VHD,125338.00,101318,0.000,0.000,0.000,0.000,0.000,0.000,13,06,2.3,M*3C
$GPGSV,3,1,10,31,54,294,47,14,68,333,45,32,80,080,50,26,27,213,42*7F
$GPGSV,3,2,10,25,53,051,49,29,22,117,46,10,27,190,39,12,15,040,28*70
$GPGSV,3,3,10,42,42,146,37,50,42,146,39*75
$PTNL,AVR,125338.00,+0.0000,Yaw,+0.0000,Tilt,,,0.000,0,0.0,00*39
$GPZDA,125338.011,13,10,2018,00,00*50
$GPHDT,,*4F
$GPROT,,V*08
$GPGSA,A,3,10,14,31,32,12,29,,,,,,,2.3,1.4,1.9*31
$GPRMC,125338.00,A,3625.79649833,N,12325.70544756,E,0.655,24.103,131018,999.9000,E,D*38
$GPGLL,3625.79649833,N,12325.70544756,E,125338.00,A,D*6C
$GPGRS,125338.00,1,0.4,0.1,-0.1,0.0,3.4,-0.1,,,,,,*42
$PTNLDG,46.0,15.0,318.0,200,0,4,1,0,,,*3C
$PFUGDP,GP,125338.00,3625.79650,N,12325.70545,E,06,6,DN,2.0,1.2,001,5.8*12
UaG@@XFVORUag@pYFYOVjnok_IPnT@`b$GPGGA,125339.00,3625.79649193,N,12325.70547740,E,2,06,1.4,12.522,M,9.764,M,7.8,0753*40
$PTNL,GGK,125339.00,101318,3625.79649193,N,12325.70547740,E,13,06,2.3,EHT22.287,M*78
$GPVTG,34.83,T,,M,0.63,N,1.16,K,D*07
$GPGST,125339.00,7.584,1.970,1.248,0.7,1.970,1.249,3.695*59
$PTNL,PJK,125339.00,101318,,,,,13,06,2.3,,M*1A
$PTNL,PJT,WGS84,NONE*21
$PTNL,VGK,125339.00,101318,00000.000,00000.000,00000.000,0,06,2.3,M*0D
$PTNL,VHD,125339.00,101318,0.000,0.000,0.000,0.000,0.000,0.000,13,06,2.3,M*3D
$GPGSV,3,1,10,31,54,294,48,14,68,333,45,32,80,080,50,26,27,213,43*71
$GPGSV,3,2,10,25,53,051,48,29,22,117,46,10,27,190,41,12,15,040,28*7E
$GPGSV,3,3,10,42,42,146,35,50,42,146,37*79
$PTNL,AVR,125339.00,+0.0000,Yaw,+0.0000,Tilt,,,0.000,0,0.0,00*38
$GPZDA,125339.011,13,10,2018,00,00*51
$GPHDT,,*4F
$GPROT,,V*08
$GPGSA,A,3,10,14,31,32,12,29,,,,,,,2.3,1.4,1.9*31
$GPRMC,125339.00,A,3625.79649193,N,12325.70547740,E,0.626,34.835,131018,999.9000,E,D*37
$GPGLL,3625.79649193,N,12325.70547740,E,125339.00,A,D*6A
$GPGRS,125339.00,1,0.4,0.1,-0.1,0.0,3.9,-0.1,,,,,,*4E
$PTNLDG,45.0,16.0,318.0,200,0,4,1,0,,,*3C
$PFUGDP,GP,125339.00,3625.79649,N,12325.70548,E,06,6,DN,2.0,1.2,001,7.6*1A
X~|wO@hNxi@NHD@tqgyipmjnKCgyipmjn$GPGGA,125340.00,3625.79666353,N,12325.70567276,E,2,08,1.2,12.468,M,9.764,M,8.8,0753*47
$PTNL,GGK,125340.00,101318,3625.79666353,N,12325.70567276,E,13,08,2.0,EHT22.233,M*75
$GPVTG,30.86,T,,M,0.62,N,1.15,K,D*04
$GPGST,125340.00,3.513,1.749,0.896,162.7,1.691,1.001,3.521*56
$PTNL,PJK,125340.00,101318,,,,,13,08,2.0,,M*19
$PTNL,PJT,WGS84,NONE*21
$PTNL,VGK,125340.00,101318,00000.000,00000.000,00000.000,0,08,2.0,M*0E
$PTNL,VHD,125340.00,101318,0.000,0.000,0.000,0.000,0.000,0.000,13,08,2.0,M*3E
$GPGSV,3,1,10,31,54,294,48,14,68,333,45,32,80,080,50,26,27,213,43*71
$GPGSV,3,2,10,25,53,051,49,29,22,117,45,10,27,190,42,12,15,040,29*7E
$GPGSV,3,3,10,42,42,146,35,50,42,146,37*79
$PTNL,AVR,125340.00,+0.0000,Yaw,+0.0000,Tilt,,,0.000,0,0.0,00*36
$GPZDA,125340.011,13,10,2018,00,00*5F
$GPHDT,,*4F
$GPROT,,V*08
$GPGSA,A,3,10,14,25,31,32,12,26,29,,,,,2.0,1.2,1.6*38
$GPRMC,125340.00,A,3625.79666353,N,12325.70567276,E,0.622,30.862,131018,999.9000,E,D*3A
$GPGLL,3625.79666353,N,12325.70567276,E,125340.00,A,D*65
$GPGRS,125340.00,1,0.3,-0.1,0.7,-0.3,-0.3,3.6,-0.1,-0.5,,,,*66
$PTNLDG,45.0,14.0,318.0,200,0,4,1,0,,,*3E
$PFUGDP,GP,125340.00,3625.79666,N,12325.70567,E,08,7,DN,1.7,0.9,163,3.5*17
uWfyipyTQj@LfyipyTQ^@xfyipyTQ~@H$GPGGA,125341.00,3625.79684417,N,12325.70582144,E,2,08,1.2,12.410,M,9.764,M,9.8,0753*4A
$PTNL,GGK,125341.00,101318,3625.79684417,N,12325.70582144,E,13,08,2.0,EHT22.174,M*76
$GPVTG,23.51,T,,M,0.68,N,1.26,K,D*06
$GPGST,125341.00,3.215,1.755,0.899,162.5,1.696,1.006,3.533*55
$PTNL,PJK,125341.00,101318,,,,,13,08,2.0,,M*18
$PTNL,PJT,WGS84,NONE*21
$PTNL,VGK,125341.00,101318,00000.000,00000.000,00000.000,0,08,2.0,M*0F
$PTNL,VHD,125341.00,101318,0.000,0.000,0.000,0.000,0.000,0.000,13,08,2.0,M*3F
$GPGSV,3,1,10,31,54,294,47,14,68,333,45,32,80,081,50,26,27,213,43*7F
$GPGSV,3,2,10,25,53,051,49,29,22,117,44,10,27,190,39,12,15,040,31*7A
$GPGSV,3,3,10,42,42,146,35,50,42,146,37*79
$PTNL,AVR,125341.00,+0.0000,Yaw,+0.0000,Tilt,,,0.000,0,0.0,00*37
$GPZDA,125341.011,13,10,2018,00,00*5E
$GPHDT,,*4F
$GPROT,,V*08
$GPGSA,A,3,10,14,25,31,32,12,26,29,,,,,2.0,1.2,1.6*38
$GPRMC,125341.00,A,3625.79684417,N,12325.70582144,E,0.680,23.515,131018,999.9000,E,D*3E
$GPGLL,3625.79684417,N,12325.70582144,E,125341.00,A,D*66
$GPGRS,125341.00,1,0.5,-0.1,0.6,-0.3,-0.3,3.4,-0.1,-0.5,,,,*62
$PTNLDG,45.0,14.0,318.0,200,0,4,1,0,,,*3E
$PFUGDP,GP,125341.00,3625.79684,N,12325.70582,E,08,7,DN,1.8,0.9,163,3.2*19
gyipmjn~{YFVOFkn^_fyipyTQU@TYFY$GPGGA,125342.00,3625.79692810,N,12325.70611918,E,2,05,2.5,12.574,M,9.764,M,7.8,0753*49
$PTNL,GGK,125342.00,101318,3625.79692810,N,12325.70611918,E,13,05,3.3,EHT22.338,M*74
$GPVTG,23.24,T,,M,0.65,N,1.20,K,D*0F
$GPGST,125342.00,10.040,5.673,1.613,154.3,5.161,2.855,12.176*5A
$PTNL,PJK,125342.00,101318,,,,,13,05,3.3,,M*14
$PTNL,PJT,WGS84,NONE*21
$PTNL,VGK,125342.00,101318,00000.000,00000.000,00000.000,0,05,3.3,M*03
$PTNL,VHD,125342.00,101318,0.000,0.000,0.000,0.000,0.000,0.000,13,05,3.3,M*33
$GPGSV,3,1,10,31,54,294,47,14,68,333,44,32,80,081,51,26,27,213,43*7F
$GPGSV,3,2,10,25,53,051,48,29,22,117,44,10,27,190,41,12,15,040,31*74
$GPGSV,3,3,10,42,42,146,37,50,42,146,37*7B
$PTNL,AVR,125342.00,+0.0000,Yaw,+0.0000,Tilt,,,0.000,0,0.0,00*34
$GPZDA,125342.011,13,10,2018,00,00*5D
$GPHDT,,*4F
$GPROT,,V*08
$GPGSA,A,3,10,14,25,12,26,,,,,,,,3.3,2.5,2.2*31
$GPRMC,125342.00,A,3625.79692810,N,12325.70611918,E,0.649,23.245,131018,999.9000,E,D*3E
$GPGLL,3625.79692810,N,12325.70611918,E,125342.00,A,D*61
$GPGRS,125342.00,1,0.5,-0.2,0.3,3.1,-0.2,,,,,,,*67
$PTNLDG,43.0,14.0,318.0,200,0,4,1,0,,,*38
$PFUGDP,GP,125342.00,3625.79693,N,12325.70612,E,05,4,DN,5.7,1.6,154,10.0*29
OVjnLk_`{_FB@`xxSCHFqA@WwuoHfy$GPGGA,125343.00,3625.79701952,N,12325.70636878,E,2,08,1.2,12.524,M,9.764,M,8.8,0753*45
$PTNL,GGK,125343.00,101318,3625.79701952,N,12325.70636878,E,13,08,2.0,EHT22.289,M*7F
$GPVTG,25.17,T,,M,0.69,N,1.27,K,D*02
$GPGST,125343.00,3.298,1.722,0.891,163.2,1.669,0.988,3.451*57
$PTNL,PJK,125343.00,101318,,,,,13,08,2.0,,M*1A
$PTNL,PJT,WGS84,NONE*21
$PTNL,VGK,125343.00,101318,00000.000,00000.000,00000.000,0,08,2.0,M*0D
$PTNL,VHD,125343.00,101318,0.000,0.000,0.000,0.000,0.000,0.000,13,08,2.0,M*3D
$GPGSV,3,1,10,31,54,294,48,14,68,333,44,32,80,081,51,26,27,213,43*70
$GPGSV,3,2,10,25,53,051,47,29,22,117,45,10,27,190,41,12,15,040,31*7A
$GPGSV,3,3,10,42,42,146,37,50,42,146,38*74
$PTNL,AVR,125343.00,+0.0000,Yaw,+0.0000,Tilt,,,0.000,0,0.0,00*35
$GPZDA,125343.011,13,10,2018,00,00*5C
$GPHDT,,*4F
$GPROT,,V*08
$GPGSA,A,3,10,14,25,31,32,12,26,29,,,,,2.0,1.2,1.6*38
$GPRMC,125343.00,A,3625.79701952,N,12325.70636878,E,0.686,25.166,131018,999.9000,E,D*36
$GPGLL,3625.79701952,N,12325.70636878,E,125343.00,A,D*6E
$GPGRS,125343.00,1,0.5,-0.1,0.3,0.0,-0.5,3.3,-0.2,-1.3,,,,*4E
$PTNLDG,44.0,15.0,318.0,200,0,4,1,0,,,*3E
$PFUGDP,GP,125343.00,3625.79702,N,12325.70637,E,08,7,DN,1.7,0.9,163,3.3*17
ipyTQO@LgyipmjNWXFVORUqX@HYFVOF$GPGGA,125344.00,3625.79725936,N,12325.70618846,E,2,08,1.2,12.449,M,9.764,M,9.8,0753*4C
$PTNL,GGK,125344.00,101318,3625.79725936,N,12325.70618846,E,13,08,2.0,EHT22.213,M*7E
$GPVTG,29.90,T,,M,0.65,N,1.21,K,D*0B
$GPGST,125344.00,3.044,1.725,0.893,163.2,1.671,0.990,3.454*53
$PTNL,PJK,125344.00,101318,,,,,13,08,2.0,,M*1D
$PTNL,PJT,WGS84,NONE*21
$PTNL,VGK,125344.00,101318,00000.000,00000.000,00000.000,0,08,2.0,M*0A
$PTNL,VHD,125344.00,101318,0.000,0.000,0.000,0.000,0.000,0.000,13,08,2.0,M*3A
$GPGSV,3,1,10,31,54,294,47,14,68,333,44,32,80,081,50,26,27,213,43*7E
$GPGSV,3,2,10,25,53,051,48,29,22,117,44,10,27,190,39,12,15,040,32*78
$GPGSV,3,3,10,42,42,146,36,50,42,146,38*75
$PTNL,AVR,125344.00,+0.0000,Yaw,+0.0000,Tilt,,,0.000,0,0.0,00*32
$GPZDA,125344.011,13,10,2018,00,00*5B
$GPHDT,,*4F
$GPROT,,V*08
$GPGSA,A,3,10,14,25,31,32,12,26,29,,,,,2.0,1.2,1.6*38
$GPRMC,125344.00,A,3625.79725936,N,12325.70618846,E,0.654,29.903,131018,999.9000,E,D*3C
$GPGLL,3625.79725936,N,12325.70618846,E,125344.00,A,D*6C
$GPGRS,125344.00,1,0.7,-0.1,0.6,-0.2,-0.3,3.2,-0.2,-0.8,,,,*6C
$PTNLDG,44.0,15.0,318.0,200,0,4,1,0,,,*3E
$PFUGDP,GP,125344.00,3625.79726,N,12325.70619,E,08,7,DN,1.7,0.9,163,3.0*19
kNCogyipmjN{OfyipyTqb@tXFVORUqR$GPGGA,125345.00,3625.79764658,N,12325.70622880,E,2,05,2.1,12.176,M,9.764,M,7.8,0753*46
$PTNL,GGK,125345.00,101318,3625.79764658,N,12325.70622880,E,13,05,4.0,EHT21.940,M*7B
$GPVTG,31.61,T,,M,0.61,N,1.12,K,D*08
$GPGST,125345.00,0.817,2.001,0.936,167.7,1.965,1.009,3.556*53
$PTNL,PJK,125345.00,101318,,,,,13,05,4.0,,M*17
$PTNL,PJT,WGS84,NONE*21
$PTNL,VGK,125345.00,101318,00000.000,00000.000,00000.000,0,05,4.0,M*00
$PTNL,VHD,125345.00,101318,0.000,0.000,0.000,0.000,0.000,0.000,13,05,4.0,M*30
$GPGSV,3,1,10,31,54,294,47,14,68,333,45,32,80,081,49,26,27,213,44*70
$GPGSV,3,2,10,25,53,051,48,29,22,117,43,10,27,190,38,12,15,040,33*7F
$GPGSV,3,3,10,42,42,146,35,50,42,146,38*76
$PTNL,AVR,125345.00,+0.0000,Yaw,+0.0000,Tilt,,,0.000,0,0.0,00*33
$GPZDA,125345.010,13,10,2018,00,00*5B
$GPHDT,,*4F
$GPROT,,V*08
$GPGSA,A,3,25,31,32,26,29,,,,,,,,4.0,2.1,3.4*39
$GPRMC,125345.00,A,3625.79764658,N,12325.70622880,E,0.607,31.607,131018,999.9000,E,D*38
$GPGLL,3625.79764658,N,12325.70622880,E,125345.00,A,D*6C
$GPGRS,125345.00,1,0.5,-0.3,-0.2,0.0,-0.6,,,,,,,*4B
$PTNLDG,44.0,14.0,318.0,200,0,4,1,0,,,*3F
$PFUGDP,GP,125345.00,3625.79765,N,12325.70623,E,05,4,DN,2.0,0.9,168,0.8*1C
@hXFVORUqv@dgyfp}kNqkK~J`~o@`UptBx$GPGGA,125346.00,3625.79792995,N,12325.70630803,E,2,05,2.1,12.057,M,9.764,M,8.8,0753*47
$PTNL,GGK,125346.00,101318,3625.79792995,N,12325.70630803,E,13,05,4.0,EHT21.822,M*72
$GPVTG,23.33,T,,M,0.66,N,1.22,K,D*08
$GPGST,125346.00,0.676,2.007,0.940,167.7,1.971,1.012,3.566*52
$PTNL,PJK,125346.00,101318,,,,,13,05,4.0,,M*14
$PTNL,PJT,WGS84,NONE*21
$PTNL,VGK,125346.00,101318,00000.000,00000.000,00000.000,0,05,4.0,M*03
$PTNL,VHD,125346.00,101318,0.000,0.000,0.000,0.000,0.000,0.000,13,05,4.0,M*33
$GPGSV,3,1,10,31,54,294,48,14,68,333,45,32,80,081,50,26,27,213,44*77
$GPGSV,3,2,10,25,53,051,49,29,22,117,43,10,27,190,39,12,15,040,31*7D
$GPGSV,3,3,10,42,42,146,36,50,42,146,37*7A
$PTNL,AVR,125346.00,+0.0000,Yaw,+0.0000,Tilt,,,0.000,0,0.0,00*30
$GPZDA,125346.011,13,10,2018,00,00*59
$GPHDT,,*4F
$GPROT,,V*08
$GPGSA,A,3,25,31,32,26,29,,,,,,,,4.0,2.1,3.4*39
$GPRMC,125346.00,A,3625.79792995,N,12325.70630803,E,0.656,23.328,131018,999.9000,E,D*3B
$GPGLL,3625.79792995,N,12325.70630803,E,125346.00,A,D*60
$GPGRS,125346.00,1,0.5,-0.3,-0.2,0.2,-0.5,,,,,,,*49
$PTNLDG,43.0,15.0,318.0,200,0,4,1,0,,,*39
$PFUGDP,GP,125346.00,3625.79793,N,12325.70631,E,05,4,DN,2.0,0.9,168,0.7*1A
[{YD\]B}OiYFVOFkNVgXFVORUq]@x$GPGGA,125347.00,3625.79813069,N,12325.70639231,E,2,08,1.2,12.067,M,9.764,M,9.8,0753*47
$PTNL,GGK,125347.00,101318,3625.79813069,N,12325.70639231,E,13,08,2.0,EHT21.831,M*74
$GPVTG,17.53,T,,M,0.74,N,1.36,K,D*0F
$GPGST,125347.00,2.952,1.589,0.889,160.2,1.524,0.995,3.159*5D
$PTNL,PJK,125347.00,101318,,,,,13,08,2.0,,M*1E
$PTNL,PJT,WGS84,NONE*21
$PTNL,VGK,125347.00,101318,00000.000,00000.000,00000.000,0,08,2.0,M*09
$PTNL,VHD,125347.00,101318,0.000,0.000,0.000,0.000,0.000,0.000,13,08,2.0,M*39
$GPGSV,3,1,10,31,54,294,49,14,68,333,44,32,80,081,50,26,27,213,44*77
$GPGSV,3,2,10,25,53,051,48,29,22,117,43,10,27,190,39,12,15,040,32*7F
$GPGSV,3,3,10,42,42,146,38,50,42,146,38*7B
$PTNL,AVR,125347.00,+0.0000,Yaw,+0.0000,Tilt,,,0.000,0,0.0,00*31
$GPZDA,125347.011,13,10,2018,00,00*58
$GPHDT,,*4F
$GPROT,,V*08
$GPGSA,A,3,10,14,25,31,32,12,26,29,,,,,2.0,1.2,1.6*38
$GPRMC,125347.00,A,3625.79813069,N,12325.70639231,E,0.737,17.529,131018,999.9000,E,D*32
$GPGLL,3625.79813069,N,12325.70639231,E,125347.00,A,D*6F
$GPGRS,125347.00,1,1.5,-0.1,0.6,-0.2,-0.1,3.0,0.4,-0.4,,,,*4B
$PTNLDG,45.0,16.0,318.0,200,0,4,1,0,,,*3C
$PFUGDP,GP,125347.00,3625.79813,N,12325.70639,E,08,7,DN,1.6,0.9,160,3.0*13
YFVOFkNBcYFVOFkN|wXFVORUqc@lXFV$GPGGA,125348.00,3625.79842146,N,12325.70650317,E,2,06,1.4,12.086,M,9.764,M,7.2,0753*49
$PTNL,GGK,125348.00,101318,3625.79842146,N,12325.70650317,E,13,06,2.3,EHT21.850,M*73
$GPVTG,25.77,T,,M,0.68,N,1.26,K,D*04
$GPGST,125348.00,6.258,1.779,1.244,179.4,1.779,1.244,3.375*5E
$PTNL,PJK,125348.00,101318,,,,,13,06,2.3,,M*1C
$PTNL,PJT,WGS84,NONE*21
$PTNL,VGK,125348.00,101318,00000.000,00000.000,00000.000,0,06,2.3,M*0B
$PTNL,VHD,125348.00,101318,0.000,0.000,0.000,0.000,0.000,0.000,13,06,2.3,M*3B
$GPGSV,3,1,10,31,54,294,49,14,68,333,44,32,80,081,51,26,27,213,44*76
$GPGSV,3,2,10,25,53,051,47,29,22,117,42,10,27,190,38,12,15,040,31*73
$GPGSV,3,3,10,42,42,146,38,50,42,146,38*7B
$PTNL,AVR,125348.00,+0.0000,Yaw,+0.0000,Tilt,,,0.000,0,0.0,00*3E
$GPZDA,125348.011,13,10,2018,00,00*57
$GPHDT,,*4F
$GPROT,,V*08
$GPGSA,A,3,10,14,31,32,12,29,,,,,,,2.3,1.4,1.9*31
$GPRMC,125348.00,A,3625.79842146,N,12325.70650317,E,0.680,25.771,131018,999.9000,E,D*3C
$GPGLL,3625.79842146,N,12325.70650317,E,125348.00,A,D*62
$GPGRS,125348.00,1,1.9,0.1,-0.1,0.1,3.0,-0.1,,,,,,*4C
$PTNLDG,44.0,15.0,318.0,200,0,4,1,0,,,*3E
$PFUGDP,GP,125348.00,3625.79842,N,12325.70650,E,06,6,DN,1.8,1.2,179,6.3*12
ORUqW@XXFVORUqw@hYFVOFkvwOYFYOVjv$GPGGA,125349.00,3625.79867727,N,12325.70666960,E,2,06,2.1,12.062,M,9.764,M,8.2,0753*42
$PTNL,GGK,125349.00,101318,3625.79867727,N,12325.70666960,E,13,06,3.3,EHT21.826,M*7B
$GPVTG,34.76,T,,M,0.64,N,1.18,K,D*04
$GPGST,125349.00,8.031,4.797,1.367,23.9,4.420,2.312,3.451*60
$PTNL,PJK,125349.00,101318,,,,,13,06,3.3,,M*1C
$PTNL,PJT,WGS84,NONE*21
$PTNL,VGK,125349.00,101318,00000.000,00000.000,00000.000,0,06,3.3,M*0B
$PTNL,VHD,125349.00,101318,0.000,0.000,0.000,0.000,0.000,0.000,13,06,3.3,M*3B
$GPGSV,3,1,10,31,54,294,49,14,68,333,45,32,80,081,51,26,27,213,43*70
$GPGSV,3,2,10,25,53,051,47,29,22,117,42,10,27,190,39,12,15,040,31*72
$GPGSV,3,3,10,42,42,146,37,50,42,146,39*75
$PTNL,AVR,125349.00,+0.0000,Yaw,+0.0000,Tilt,,,0.000,0,0.0,00*3F
$GPZDA,125349.011,13,10,2018,00,00*56
$GPHDT,,*4F
$GPROT,,V*08
$GPGSA,A,3,10,14,31,32,12,29,,,,,,,3.3,2.1,2.6*3A
$GPRMC,125349.00,A,3625.79867727,N,12325.70666960,E,0.637,34.758,131018,999.9000,E,D*33
$GPGLL,3625.79867727,N,12325.70666960,E,125349.00,A,D*6A
$GPGRS,125349.00,1,2.0,0.0,-0.1,0.1,2.8,-0.1,,,,,,*4F
$PTNLDG,45.0,16.0,318.0,200,0,4,1,0,,,*3C
$PFUGDP,GP,125349.00,3625.79868,N,12325.70667,E,06,6,DN,4.8,1.4,024,8.0*18
UkGavoQu~_]gU}wO@|pGVeID@teYFVOF$GPGGA,125350.00,3625.79863984,N,12325.70670753,E,2,08,1.2,12.044,M,9.764,M,9.2,0753*4B
$PTNL,GGK,125350.00,101318,3625.79863984,N,12325.70670753,E,13,08,2.0,EHT21.808,M*79
$GPVTG,28.11,T,,M,0.64,N,1.18,K,D*08
$GPGST,125350.00,2.794,1.644,0.888,160.5,1.578,1.001,3.284*54
$PTNL,PJK,125350.00,101318,,,,,13,08,2.0,,M*18
$PTNL,PJT,WGS84,NONE*21
$PTNL,VGK,125350.00,101318,00000.000,00000.000,00000.000,0,08,2.0,M*0F
$PTNL,VHD,125350.00,101318,0.000,0.000,0.000,0.000,0.000,0.000,13,08,2.0,M*3F
$GPGSV,3,1,10,31,54,294,48,14,68,333,45,32,80,081,50,26,27,213,43*70
$GPGSV,3,2,10,25,53,051,47,29,22,117,42,10,27,190,40,12,15,040,31*7C
$GPGSV,3,3,10,42,42,146,36,50,42,146,38*75
$PTNL,AVR,125350.00,+0.0000,Yaw,+0.0000,Tilt,,,0.000,0,0.0,00*37
$GPZDA,125350.011,13,10,2018,00,00*5E
$GPHDT,,*4F
$GPROT,,V*08
$GPGSA,A,3,10,14,25,31,32,12,26,29,,,,,2.0,1.2,1.6*38
$GPRMC,125350.00,A,3625.79863984,N,12325.70670753,E,0.637,28.108,131018,999.9000,E,D*3F
$GPGLL,3625.79863984,N,12325.70670753,E,125350.00,A,D*68
$GPGRS,125350.00,1,1.4,-0.2,0.5,-0.4,-0.2,2.9,0.3,-0.5,,,,*47
$PTNLDG,45.0,16.0,318.0,200,0,4,1,0,,,*3C
$PFUGDP,GP,125350.00,3625.79864,N,12325.70671,E,08,7,DN,1.6,0.9,161,2.8*11
kvaWXFVORUIy@`XFVORUIA@TgyipmjvZ$GPGGA,125351.00,3625.79856844,N,12325.70684829,E,2,05,2.5,12.039,M,9.764,M,7.2,0753*45
$PTNL,GGK,125351.00,101318,3625.79856844,N,12325.70684829,E,13,05,3.3,EHT21.803,M*7E
$GPVTG,22.39,T,,M,0.69,N,1.28,K,D*06
$GPGST,125351.00,10.404,3.895,1.455,146.0,3.329,2.490,7.556*63
$PTNL,PJK,125351.00,101318,,,,,13,05,3.3,,M*16
$PTNL,PJT,WGS84,NONE*21
$PTNL,VGK,125351.00,101318,00000.000,00000.000,00000.000,0,05,3.3,M*01
$PTNL,VHD,125351.00,101318,0.000,0.000,0.000,0.000,0.000,0.000,13,05,3.3,M*31
$GPGSV,3,1,10,31,54,294,49,14,68,333,45,32,80,081,50,26,27,213,43*71
$GPGSV,3,2,10,25,52,051,47,29,22,117,41,10,27,190,40,12,15,040,31*7E
$GPGSV,3,3,10,42,42,146,36,50,42,146,36*7B
$PTNL,AVR,125351.00,+0.0000,Yaw,+0.0000,Tilt,,,0.000,0,0.0,00*36
$GPZDA,125351.010,13,10,2018,00,00*5E
$GPHDT,,*4F
$GPROT,,V*08
$GPGSA,A,3,10,14,25,12,26,,,,,,,,3.3,2.5,2.2*31
$GPRMC,125351.00,A,3625.79856844,N,12325.70684829,E,0.692,22.389,131018,999.9000,E,D*32
$GPGLL,3625.79856844,N,12325.70684829,E,125351.00,A,D*6B
$GPGRS,125351.00,1,0.8,-0.2,0.4,3.1,-0.2,,,,,,,*6F
$PTNLDG,46.0,16.0,318.0,200,0,4,1,0,,,*3F
$PFUGDP,GP,125351.00,3625.79857,N,12325.70685,E,05,4,DN,3.9,1.5,146,10.4*2F
ggyipmjvjoYFVOFkvLkXFVORUIK@tfy$GPGGA,125352.00,3625.79865099,N,12325.70719339,E,2,05,2.5,11.984,M,9.764,M,8.2,0753*42
$PTNL,GGK,125352.00,101318,3625.79865099,N,12325.70719339,E,13,05,3.3,EHT21.749,M*7B
$GPVTG,23.10,T,,M,0.69,N,1.28,K,D*0C
$GPGST,125352.00,8.772,3.743,1.429,144.5,3.157,2.467,7.106*51
$PTNL,PJK,125352.00,101318,,,,,13,05,3.3,,M*15
$PTNL,PJT,WGS84,NONE*21
$PTNL,VGK,125352.00,101318,00000.000,00000.000,00000.000,0,05,3.3,M*02
$PTNL,VHD,125352.00,101318,0.000,0.000,0.000,0.000,0.000,0.000,13,05,3.3,M*32
$GPGSV,3,1,10,31,54,294,49,14,68,333,45,32,80,081,50,26,27,213,42*70
$GPGSV,3,2,10,25,52,051,47,29,22,117,41,10,27,190,41,12,15,040,32*7C
$GPGSV,3,3,10,42,42,146,35,50,42,146,36*78
$PTNL,AVR,125352.00,+0.0000,Yaw,+0.0000,Tilt,,,0.000,0,0.0,00*35
$GPZDA,125352.010,13,10,2018,00,00*5D
$GPHDT,,*4F
$GPROT,,V*08
$GPGSA,A,3,10,14,25,12,26,,,,,,,,3.3,2.5,2.2*31
$GPRMC,125352.00,A,3625.79865099,N,12325.70719339,E,0.689,23.103,131018,999.9000,E,D*3D
$GPGLL,3625.79865099,N,12325.70719339,E,125352.00,A,D*6F
$GPGRS,125352.00,1,0.5,-0.2,0.2,2.9,-0.3,,,,,,,*6F
$PTNLDG,45.0,15.0,318.0,200,0,4,1,0,,,*3F
$PFUGDP,GP,125352.00,3625.79865,N,12325.70719,E,05,4,DN,3.7,1.4,144,8.8*11
fpiUIoTH^D`yiA`xxG}wy@TpA@CIJ@Pc$GPGGA,125353.00,3625.79874459,N,12325.70749467,E,2,05,2.5,11.926,M,9.764,M,9.2,0753*4B
$PTNL,GGK,125353.00,101318,3625.79874459,N,12325.70749467,E,13,05,3.3,EHT21.690,M*7E
$GPVTG,23.68,T,,M,0.65,N,1.21,K,D*06
$GPGST,125353.00,7.856,4.541,1.540,150.0,4.007,2.633,9.261*53
$PTNL,PJK,125353.00,101318,,,,,13,05,3.3,,M*14
$PTNL,PJT,WGS84,NONE*21
$PTNL,VGK,125353.00,101318,00000.000,00000.000,00000.000,0,05,3.3,M*03
$PTNL,VHD,125353.00,101318,0.000,0.000,0.000,0.000,0.000,0.000,13,05,3.3,M*33
$GPGSV,3,1,10,31,54,294,49,14,68,333,45,32,80,081,51,26,27,213,42*71
$GPGSV,3,2,10,25,52,051,47,29,22,117,41,10,27,190,41,12,15,040,26*79
$GPGSV,3,3,10,42,42,146,38,50,42,146,37*74
$PTNL,AVR,125353.00,+0.0000,Yaw,+0.0000,Tilt,,,0.000,0,0.0,00*34
$GPZDA,125353.010,13,10,2018,00,00*5C
$GPHDT,,*4F
$GPROT,,V*08
$GPGSA,A,3,10,14,25,12,26,,,,,,,,3.3,2.5,2.2*31
$GPRMC,125353.00,A,3625.79874459,N,12325.70749467,E,0.654,23.681,131018,999.9000,E,D*30
$GPGLL,3625.79874459,N,12325.70749467,E,125353.00,A,D*6F
$GPGRS,125353.00,1,0.4,-0.1,0.1,2.8,-0.2,,,,,,,*6F
$PTNLDG,44.0,16.0,318.0,200,0,4,1,0,,,*3D
$PFUGDP,GP,125353.00,3625.79874,N,12325.70749,E,05,4,DN,4.5,1.5,150,7.9*1A
gyipmjVgggyipmjVCkXFVORUiD@`XFV$GPGGA,125354.00,3625.79899113,N,12325.70757880,E,2,05,2.1,11.429,M,9.764,M,6.0,0753*45
$PTNL,GGK,125354.00,101318,3625.79899113,N,12325.70757880,E,13,05,4.0,EHT21.194,M*7C
$GPVTG,24.82,T,,M,0.67,N,1.24,K,D*02
$GPGST,125354.00,4.241,1.986,0.932,167.5,1.950,1.006,3.540*53
$PTNL,PJK,125354.00,101318,,,,,13,05,4.0,,M*17
$PTNL,PJT,WGS84,NONE*21
$PTNL,VGK,125354.00,101318,00000.000,00000.000,00000.000,0,05,4.0,M*00
$PTNL,VHD,125354.00,101318,0.000,0.000,0.000,0.000,0.000,0.000,13,05,4.0,M*30
$GPGSV,3,1,10,31,54,294,49,14,68,333,45,32,80,081,51,26,27,213,41*72
$GPGSV,3,2,10,25,52,051,47,29,22,117,42,10,27,190,42,12,15,040,23*7C
$GPGSV,3,3,10,42,42,146,39,50,42,146,38*7A
$PTNL,AVR,125354.00,+0.0000,Yaw,+0.0000,Tilt,,,0.000,0,0.0,00*33
$GPZDA,125354.011,13,10,2018,00,00*5A
$GPHDT,,*4F
$GPROT,,V*08
$GPGSA,A,3,25,31,32,26,29,,,,,,,,4.0,2.1,3.4*39
$GPRMC,125354.00,A,3625.79899113,N,12325.70757880,E,0.671,24.820,131018,999.9000,E,D*30
$GPGLL,3625.79899113,N,12325.70757880,E,125354.00,A,D*6A
$GPGRS,125354.00,1,0.0,-0.2,-0.5,-0.3,-2.0,,,,,,,*62
$PTNLDG,45.0,15.0,318.0,200,0,4,1,0,,,*3F
$PFUGDP,GP,125354.00,3625.79899,N,12325.70758,E,05,4,DN,2.0,0.9,168,4.2*13
ORUib@pgyipmjVmGfyipyTiv@`XFVORUi$GPGGA,125355.00,3625.79927209,N,12325.70771238,E,2,05,2.1,10.993,M,9.764,M,7.0,0753*49
$PTNL,GGK,125355.00,101318,3625.79927209,N,12325.70771238,E,13,05,4.0,EHT20.757,M*74
$GPVTG,30.40,T,,M,0.71,N,1.32,K,D*09
$GPGST,125355.00,3.563,1.991,0.935,167.6,1.954,1.009,3.547*5C
$PTNL,PJK,125355.00,101318,,,,,13,05,4.0,,M*16
$PTNL,PJT,WGS84,NONE*21
$PTNL,VGK,125355.00,101318,00000.000,00000.000,00000.000,0,05,4.0,M*01
$PTNL,VHD,125355.00,101318,0.000,0.000,0.000,0.000,0.000,0.000,13,05,4.0,M*31
$GPGSV,4,1,11,31,54,294,49,14,68,333,45,22,18,311,34,32,80,081,51*7D
$GPGSV,4,2,11,26,27,213,41,25,52,051,46,29,22,117,43,10,27,190,42*7C
$GPGSV,4,3,11,12,15,040,21*4E
$GPGSV,4,4,11,42,42,146,38,50,42,146,38*7A
$PTNL,AVR,125355.00,+0.0000,Yaw,+0.0000,Tilt,,,0.000,0,0.0,00*32
$GPZDA,125355.010,13,10,2018,00,00*5A
$GPHDT,,*4F
$GPROT,,V*08
$GPGSA,A,3,25,31,32,26,29,,,,,,,,4.0,2.1,3.4*39
$GPRMC,125355.00,A,3625.79927209,N,12325.70771238,E,0.714,30.402,131018,999.9000,E,D*3B
$GPGLL,3625.79927209,N,12325.70771238,E,125355.00,A,D*6A
$GPGRS,125355.00,1,0.1,0.0,-0.2,-0.1,-1.9,,,,,,,*42
$PTNLDG,44.0,16.0,318.0,200,0,4,1,0,,,*3D
$PFUGDP,GP,125355.00,3625.79927,N,12325.70771,E,05,4,DN,2.0,0.9,168,3.6*1E
N@@YFVOFkVVwYFYOVjVfk[~J`A|A`Up`$GPGGA,125356.00,3625.79953696,N,12325.70783807,E,2,06,1.7,10.593,M,9.764,M,8.0,0753*45
$PTNL,GGK,125356.00,101318,3625.79953696,N,12325.70783807,E,13,06,3.0,EHT20.358,M*72
$GPVTG,26.61,T,,M,0.74,N,1.37,K,D*0D
$GPGST,125356.00,0.096,1.451,1.118,97.9,1.125,1.445,2.761*60
$PTNL,PJK,125356.00,101318,,,,,13,06,3.0,,M*11
$PTNL,PJT,WGS84,NONE*21
$PTNL,VGK,125356.00,101318,00000.000,00000.000,00000.000,0,06,3.0,M*06
$PTNL,VHD,125356.00,101318,0.000,0.000,0.000,0.000,0.000,0.000,13,06,3.0,M*36
$GPGSV,4,1,11,31,54,294,49,14,68,333,45,22,18,311,35,32,80,081,50*7D
$GPGSV,4,2,11,26,27,213,39,25,52,051,47,29,22,117,42,10,27,190,42*73
$GPGSV,4,3,11,12,15,040,22*4D
$GPGSV,4,4,11,42,42,146,38,50,42,146,39*7B
$PTNL,AVR,125356.00,+0.0000,Yaw,+0.0000,Tilt,,,0.000,0,0.0,00*31
$GPZDA,125356.011,13,10,2018,00,00*58
$GPHDT,,*4F
$GPROT,,V*08
$GPGSA,A,3,25,31,32,26,29,22,,,,,,,3.0,1.7,2.5*3B
$GPRMC,125356.00,A,3625.79953696,N,12325.70783807,E,0.741,26.612,131018,999.9000,E,D*36
$GPGLL,3625.79953696,N,12325.70783807,E,125356.00,A,D*63
$GPGRS,125356.00,1,0.0,-0.1,-0.2,-0.2,-2.1,0.0,,,,,,*4A
$PTNLDG,45.0,17.0,318.0,200,0,4,1,0,,,*3D
$PFUGDP,GP,125356.00,3625.79954,N,12325.70784,E,06,7,DN,1.5,1.1,098,0.1*16
|Gx@hXD\I|B@pBXFVORUi}@XYFVOFkV|$GPGGA,125357.00,3625.79970362,N,12325.70788986,E,2,08,1.1,10.579,M,9.764,M,9.0,0753*45
$PTNL,GGK,125357.00,101318,3625.79970362,N,12325.70788986,E,13,08,1.9,EHT20.343,M*70
$GPVTG,15.81,T,,M,0.66,N,1.23,K,D*05
$GPGST,125357.00,0.950,0.953,0.777,36.5,0.894,0.843,1.805*62
$PTNL,PJK,125357.00,101318,,,,,13,08,1.9,,M*15
$PTNL,PJT,WGS84,NONE*21
$PTNL,VGK,125357.00,101318,00000.000,00000.000,00000.000,0,08,1.9,M*02
$PTNL,VHD,125357.00,101318,0.000,0.000,0.000,0.000,0.000,0.000,13,08,1.9,M*32
$GPGSV,4,1,11,31,54,295,49,14,68,333,45,22,18,311,35,32,80,081,50*7C
$GPGSV,4,2,11,26,27,213,40,25,52,051,47,29,22,117,43,10,27,190,42*7C
$GPGSV,4,3,11,12,15,040,24*4B
$GPGSV,4,4,11,42,42,146,37,50,42,146,37*7A
$PTNL,AVR,125357.00,+0.0000,Yaw,+0.0000,Tilt,,,0.000,0,0.0,00*30
$GPZDA,125357.011,13,10,2018,00,00*59
$GPHDT,,*4F
$GPROT,,V*08
$GPGSA,A,3,10,14,25,31,32,26,29,22,,,,,1.9,1.1,1.6*32
$GPRMC,125357.00,A,3625.79970362,N,12325.70788986,E,0.662,15.811,131018,999.9000,E,D*36
$GPGLL,3625.79970362,N,12325.70788986,E,125357.00,A,D*6E
$GPGRS,125357.00,1,0.4,0.2,0.1,0.0,-0.1,0.0,-1.9,0.2,,,,*45
$PTNLDG,45.0,16.0,318.0,200,0,4,1,0,,,*3C
$PFUGDP,GP,125357.00,3625.79970,N,12325.70789,E,08,7,DN,1.0,0.8,037,0.9*12
gYFVOFkV\WXFVORUiW@HYFVOFkVHSYF$GPGGA,125358.00,3625.79985072,N,12325.70780426,E,2,05,2.1,10.787,M,9.764,M,7.0,0753*4E
$PTNL,GGK,125358.00,101318,3625.79985072,N,12325.70780426,E,13,05,4.1,EHT20.551,M*7D
$GPVTG,21.38,T,,M,0.64,N,1.18,K,D*0A
$GPGST,125358.00,2.374,1.986,1.244,0.9,1.985,1.244,3.711*53
$PTNL,PJK,125358.00,101318,,,,,13,05,4.1,,M*1A
$PTNL,PJT,WGS84,NONE*21
$PTNL,VGK,125358.00,101318,00000.000,00000.000,00000.000,0,05,4.1,M*0D
$PTNL,VHD,125358.00,101318,0.000,0.000,0.000,0.000,0.000,0.000,13,05,4.1,M*3D
$GPGSV,4,1,11,31,54,295,49,14,68,333,44,22,18,311,33,32,80,081,50*7B
$GPGSV,4,2,11,26,27,213,40,25,52,051,48,29,22,117,44,10,27,190,43*75
$GPGSV,4,3,11,12,15,040,21*4E
$GPGSV,4,4,11,42,42,146,38,50,42,146,39*7B
$PTNL,AVR,125358.00,+0.0000,Yaw,+0.0000,Tilt,,,0.000,0,0.0,00*3F
$GPZDA,125358.011,13,10,2018,00,00*56
$GPHDT,,*4F
$GPROT,,V*08
$GPGSA,A,3,10,14,31,32,29,,,,,,,,4.1,2.1,3.5*3E
$GPRMC,125358.00,A,3625.79985072,N,12325.70780426,E,0.638,21.381,131018,999.9000,E,D*34
$GPGLL,3625.79985072,N,12325.70780426,E,125358.00,A,D*66
$GPGRS,125358.00,1,0.7,0.4,0.2,0.2,-1.3,,,,,,,*44
$PTNLDG,45.0,16.0,318.0,200,0,4,1,0,,,*3C
$PFUGDP,GP,125358.00,3625.79985,N,12325.70780,E,05,4,DN,2.0,1.2,001,2.4*12
VOFkfwofyipyTYh@`XFVORUY\@@fyfpi$GPGGA,125359.00,3625.79988705,N,12325.70745005,E,2,05,2.1,11.368,M,9.764,M,8.0,0753*42
$PTNL,GGK,125359.00,101318,3625.79988705,N,12325.70745005,E,13,05,4.1,EHT21.132,M*7A
$GPVTG,35.38,T,,M,0.60,N,1.11,K,D*02
$GPGST,125359.00,0.712,1.992,1.249,0.8,1.992,1.249,3.727*53
$PTNL,PJK,125359.00,101318,,,,,13,05,4.1,,M*1B
$PTNL,PJT,WGS84,NONE*21
$PTNL,VGK,125359.00,101318,00000.000,00000.000,00000.000,0,05,4.1,M*0C
$PTNL,VHD,125359.00,101318,0.000,0.000,0.000,0.000,0.000,0.000,13,05,4.1,M*3C
$GPGSV,4,1,11,31,54,295,49,14,68,333,44,22,18,311,30,32,80,081,50*78
$GPGSV,4,2,11,26,27,213,40,25,52,051,48,29,22,117,44,10,27,190,43*75
$GPGSV,4,3,11,12,15,040,*4D
$GPGSV,4,4,11,42,42,146,38,50,42,146,38*7A
$PTNL,AVR,125359.00,+0.0000,Yaw,+0.0000,Tilt,,,0.000,0,0.0,00*3E
$GPZDA,125359.011,13,10,2018,00,00*57
$GPHDT,,*4F
$GPROT,,V*08
$GPGSA,A,3,10,14,31,32,29,,,,,,,,4.1,2.1,3.5*3E
$GPRMC,125359.00,A,3625.79988705,N,12325.70745005,E,0.599,35.384,131018,999.9000,E,D*3B
$GPGLL,3625.79988705,N,12325.70745005,E,125359.00,A,D*61
$GPGRS,125359.00,1,0.4,0.2,-0.2,0.1,-0.7,,,,,,,*6B
$PTNLDG,45.0,16.0,318.0,200,0,4,1,0,,,*3C
$PFUGDP,GP,125359.00,3625.79989,N,12325.70745,E,05,4,DN,2.0,1.2,001,0.7*17
UY~T\`voQa@`bX~|wO@hNxi@NHD@tqgyi$GPGGA,125400.00,3625.80002630,N,12325.70749119,E,2,08,1.1,11.556,M,9.764,M,9.0,0753*47
$PTNL,GGK,125400.00,101318,3625.80002630,N,12325.70749119,E,13,08,1.9,EHT21.321,M*7B
$GPVTG,39.48,T,,M,0.64,N,1.18,K,D*04
$GPGST,125400.00,0.518,1.452,0.893,165.0,1.422,0.941,2.954*58
$PTNL,PJK,125400.00,101318,,,,,13,08,1.9,,M*10
$PTNL,PJT,WGS84,NONE*21
$PTNL,VGK,125400.00,101318,00000.000,00000.000,00000.000,0,08,1.9,M*07
$PTNL,VHD,125400.00,101318,0.000,0.000,0.000,0.000,0.000,0.000,13,08,1.9,M*37
$GPGSV,4,1,11,31,54,295,49,14,68,333,45,22,18,311,34,32,80,081,50*7D
$GPGSV,4,2,11,26,27,213,40,25,52,051,48,29,22,117,44,10,27,190,41*77
$GPGSV,4,3,11,12,15,040,*4D
$GPGSV,4,4,11,42,42,146,37,50,42,146,35*78
$PTNL,AVR,125400.00,+0.0000,Yaw,+0.0000,Tilt,,,0.000,0,0.0,00*35
$GPZDA,125400.011,13,10,2018,00,00*5C
$GPHDT,,*4F
$GPROT,,V*08
$GPGSA,A,3,10,14,25,31,32,26,29,22,,,,,1.9,1.1,1.6*32
$GPRMC,125400.00,A,3625.80002630,N,12325.70749119,E,0.639,39.483,131018,999.9000,E,D*3F
$GPGLL,3625.80002630,N,12325.70749119,E,125400.00,A,D*60
$GPGRS,125400.00,1,0.0,-0.2,0.6,-0.6,-0.3,-0.6,-0.9,0.2,,,,*6D
$PTNLDG,45.0,18.0,318.0,200,0,4,1,0,,,*32
$PFUGDP,GP,125400.00,3625.80003,N,12325.70749,E,08,7,DN,1.5,0.9,165,0.5*1E
pmjf~KgyipmjfZGXFVORUYU@pYFVOFkf$GPGGA,125401.00,3625.80037588,N,12325.70770593,E,2,05,1.8,11.393,M,9.764,M,7.0,0753*49
$PTNL,GGK,125401.00,101318,3625.80037588,N,12325.70770593,E,13,05,3.4,EHT21.157,M*71
$GPVTG,23.74,T,,M,0.65,N,1.21,K,D*0B
$GPGST,125401.00,0.410,1.917,1.514,127.3,1.673,1.780,4.492*5F
$PTNL,PJK,125401.00,101318,,,,,13,05,3.4,,M*13
$PTNL,PJT,WGS84,NONE*21
$PTNL,VGK,125401.00,101318,00000.000,00000.000,00000.000,0,05,3.4,M*04
$PTNL,VHD,125401.00,101318,0.000,0.000,0.000,0.000,0.000,0.000,13,05,3.4,M*34
$GPGSV,4,1,11,31,54,295,48,14,68,333,45,22,18,311,35,32,80,082,50*7E
$GPGSV,4,2,11,26,27,213,41,25,52,051,47,29,22,117,44,10,27,190,41*79
$GPGSV,4,3,11,12,15,040,*4D
$GPGSV,4,4,11,42,42,146,36,50,42,146,35*79
$PTNL,AVR,125401.00,+0.0000,Yaw,+0.0000,Tilt,,,0.000,0,0.0,00*34
$GPZDA,125401.011,13,10,2018,00,00*5D
$GPHDT,,*4F
$GPROT,,V*08
$GPGSA,A,3,10,14,25,26,22,,,,,,,,3.4,1.8,2.9*30
$GPRMC,125401.00,A,3625.80037588,N,12325.70770593,E,0.652,23.736,131018,999.9000,E,D*3F
$GPGLL,3625.80037588,N,12325.70770593,E,125401.00,A,D*6B
$GPGRS,125401.00,1,0.2,-0.3,0.4,-0.4,0.1,,,,,,,*63
$PTNLDG,45.0,17.0,318.0,200,0,4,1,0,,,*3D
$PFUGDP,GP,125401.00,3625.80038,N,12325.70771,E,05,4,DN,1.9,1.5,127,0.4*14
LKgyipmjftkfyipyTYo@LXFVORUY_@P$GPGGA,125402.00,3625.80057921,N,12325.70797232,E,2,05,1.8,11.331,M,9.764,M,8.0,0753*41
$PTNL,GGK,125402.00,101318,3625.80057921,N,12325.70797232,E,13,05,3.4,EHT21.095,M*71
$GPVTG,11.56,T,,M,0.73,N,1.35,K,D*08
$GPGST,125402.00,0.308,3.085,1.603,150.8,2.805,2.054,6.895*54
$PTNL,PJK,125402.00,101318,,,,,13,05,3.4,,M*10
$PTNL,PJT,WGS84,NONE*21
$PTNL,VGK,125402.00,101318,00000.000,00000.000,00000.000,0,05,3.4,M*07
$PTNL,VHD,125402.00,101318,0.000,0.000,0.000,0.000,0.000,0.000,13,05,3.4,M*37
$GPGSV,4,1,11,31,54,295,48,14,68,333,44,22,18,311,31,32,80,082,51*7A
$GPGSV,4,2,11,26,27,213,41,25,52,051,47,29,22,117,44,10,27,190,43*7B
$GPGSV,4,3,11,12,15,040,*4D
$GPGSV,4,4,11,42,42,146,37,50,42,146,36*7B
$PTNL,AVR,125402.00,+0.0000,Yaw,+0.0000,Tilt,,,0.000,0,0.0,00*37
$GPZDA,125402.011,13,10,2018,00,00*5E
$GPHDT,,*4F
$GPROT,,V*08
$GPGSA,A,3,10,14,25,26,22,,,,,,,,3.4,1.8,2.9*30
$GPRMC,125402.00,A,3625.80057921,N,12325.70797232,E,0.730,11.556,131018,999.9000,E,D*30
$GPGLL,3625.80057921,N,12325.70797232,E,125402.00,A,D*64
$GPGRS,125402.00,1,0.2,-0.2,0.2,-0.2,0.3,,,,,,,*63
$PTNLDG,46.0,17.0,318.0,200,0,4,1,0,,,*3E
$PFUGDP,GP,125402.00,3625.80058,N,12325.70797,E,05,4,DN,3.1,1.6,151,0.3*16
XFVORUyx@HfyfpiUy@TL^D`yF@`xxSCHf$GPGGA,125403.00,3625.80075619,N,12325.70819239,E,2,05,1.8,11.231,M,9.764,M,9.0,0753*46
$PTNL,GGK,125403.00,101318,3625.80075619,N,12325.70819239,E,13,05,3.4,EHT20.995,M*7E
$GPVTG,17.62,T,,M,0.67,N,1.25,K,D*0D
$GPGST,125403.00,0.411,2.876,1.604,149.7,2.612,2.006,6.476*51
$PTNL,PJK,125403.00,101318,,,,,13,05,3.4,,M*11
$PTNL,PJT,WGS84,NONE*21
$PTNL,VGK,125403.00,101318,00000.000,00000.000,00000.000,0,05,3.4,M*06
$PTNL,VHD,125403.00,101318,0.000,0.000,0.000,0.000,0.000,0.000,13,05,3.4,M*36
$GPGSV,4,1,11,31,54,295,50,14,68,333,45,22,18,311,32,32,80,082,51*71
$GPGSV,4,2,11,26,27,213,40,25,52,051,48,29,22,117,43,10,27,190,41*70
$GPGSV,4,3,11,12,15,040,*4D
$GPGSV,4,4,11,42,42,146,37,50,42,146,36*7B
$PTNL,AVR,125403.00,+0.0000,Yaw,+0.0000,Tilt,,,0.000,0,0.0,00*36
$GPZDA,125403.010,13,10,2018,00,00*5E
$GPHDT,,*4F
$GPROT,,V*08
$GPGSA,A,3,10,14,25,26,22,,,,,,,,3.4,1.8,2.9*30
$GPRMC,125403.00,A,3625.80075619,N,12325.70819239,E,0.674,17.619,131018,999.9000,E,D*38
$GPGLL,3625.80075619,N,12325.70819239,E,125403.00,A,D*63
$GPGRS,125403.00,1,0.1,-0.2,0.1,-0.2,0.6,,,,,,,*67
$PTNLDG,45.0,17.0,318.0,200,0,4,1,0,,,*3D
$PFUGDP,GP,125403.00,3625.80076,N,12325.70819,E,05,4,DN,2.9,1.6,150,0.4*1D
OpA@CIJ@PcgyipmjF[OYFVOFkFmsgy$GPGGA,125404.00,3625.80093825,N,12325.70832282,E,2,06,1.2,11.117,M,9.764,M,5.8,0753*4B
$PTNL,GGK,125404.00,101318,3625.80093825,N,12325.70832282,E,13,06,2.1,EHT20.881,M*7A
$GPVTG,34.39,T,,M,0.67,N,1.24,K,D*03
$GPGST,125404.00,1.209,1.821,0.928,168.8,1.795,0.976,3.261*51
$PTNL,PJK,125404.00,101318,,,,,13,06,2.1,,M*11
$PTNL,PJT,WGS84,NONE*21
$PTNL,VGK,125404.00,101318,00000.000,00000.000,00000.000,0,06,2.1,M*06
$PTNL,VHD,125404.00,101318,0.000,0.000,0.000,0.000,0.000,0.000,13,06,2.1,M*36
$GPGSV,4,1,11,31,54,295,48,14,68,333,45,22,18,311,31,32,80,082,51*7B
$GPGSV,4,2,11,26,27,213,40,25,52,051,48,29,22,117,44,10,27,190,41*77
$GPGSV,4,3,11,12,15,040,*4D
$GPGSV,4,4,11,42,42,146,38,50,42,146,35*77
$PTNL,AVR,125404.00,+0.0000,Yaw,+0.0000,Tilt,,,0.000,0,0.0,00*31
$GPZDA,125404.011,13,10,2018,00,00*58
$GPHDT,,*4F
$GPROT,,V*08
$GPGSA,A,3,25,31,32,26,29,22,,,,,,,2.1,1.2,1.7*3F
$GPRMC,125404.00,A,3625.80093825,N,12325.70832282,E,0.667,34.395,131018,999.9000,E,D*3D
$GPGLL,3625.80093825,N,12325.70832282,E,125404.00,A,D*64
$GPGRS,125404.00,1,0.3,-0.1,-0.1,0.1,-1.3,0.9,,,,,,*6C
$PTNLDG,45.0,16.0,318.0,200,0,4,1,0,,,*3C
$PFUGDP,GP,125404.00,3625.80094,N,12325.70832,E,06,6,DN,1.8,0.9,169,1.2*1F
ipmjFMWXFVORUyN@`fyipyTyn@DYFVOF$GPGGA,125405.00,3625.80116753,N,12325.70846629,E,2,06,1.2,10.812,M,9.764,M,6.8,0753*40
$PTNL,GGK,125405.00,101318,3625.80116753,N,12325.70846629,E,13,06,2.1,EHT20.576,M*7A
$GPVTG,35.42,T,,M,0.67,N,1.24,K,D*0E
$GPGST,125405.00,1.290,1.847,0.931,168.6,1.820,0.983,3.306*5D
$PTNL,PJK,125405.00,101318,,,,,13,06,2.1,,M*10
$PTNL,PJT,WGS84,NONE*21
$PTNL,VGK,125405.00,101318,00000.000,00000.000,00000.000,0,06,2.1,M*07
$PTNL,VHD,125405.00,101318,0.000,0.000,0.000,0.000,0.000,0.000,13,06,2.1,M*37
$GPGSV,4,1,11,31,54,295,47,14,68,333,45,22,18,311,30,32,80,082,50*74
$GPGSV,4,2,11,26,27,213,41,25,52,051,47,29,22,117,43,10,27,190,40*7F
$GPGSV,4,3,11,12,15,040,*4D
$GPGSV,4,4,11,42,42,146,37,50,42,146,35*78
$PTNL,AVR,125405.00,+0.0000,Yaw,+0.0000,Tilt,,,0.000,0,0.0,00*30
$GPZDA,125405.011,13,10,2018,00,00*59
$GPHDT,,*4F
$GPROT,,V*08
$GPGSA,A,3,25,31,32,26,29,22,,,,,,,2.1,1.2,1.7*3F
$GPRMC,125405.00,A,3625.80116753,N,12325.70846629,E,0.669,35.419,131018,999.9000,E,D*34
$GPGLL,3625.80116753,N,12325.70846629,E,125405.00,A,D*61
$GPGRS,125405.00,1,0.2,-0.2,-0.1,0.0,-1.4,0.7,,,,,,*67
$PTNLDG,45.0,16.0,318.0,200,0,4,1,0,,,*3C
$PFUGDP,GP,125405.00,3625.80117,N,12325.70847,E,06,6,DN,1.8,0.9,169,1.3*17
kFf_XFVORUyy@DXFVORUyE@LYFYOVjFZ$GPGGA,125406.00,3625.80136288,N,12325.70862634,E,2,06,1.2,10.785,M,9.764,M,7.8,0753*48
$PTNL,GGK,125406.00,101318,3625.80136288,N,12325.70862634,E,13,06,2.1,EHT20.549,M*7E
$GPVTG,24.19,T,,M,0.65,N,1.20,K,D*06
$GPGST,125406.00,1.425,1.760,0.931,169.7,1.740,0.968,3.155*54
$PTNL,PJK,125406.00,101318,,,,,13,06,2.1,,M*13
$PTNL,PJT,WGS84,NONE*21
$PTNL,VGK,125406.00,101318,00000.000,00000.000,00000.000,0,06,2.1,M*04
$PTNL,VHD,125406.00,101318,0.000,0.000,0.000,0.000,0.000,0.000,13,06,2.1,M*34
$GPGSV,4,1,11,31,54,295,48,14,68,333,45,22,18,311,32,32,80,082,50*79
$GPGSV,4,2,11,26,27,213,43,25,52,051,47,29,22,117,43,10,27,190,39*73
$GPGSV,4,3,11,12,15,040,31*4F
$GPGSV,4,4,11,42,42,146,37,50,42,146,35*78
$PTNL,AVR,125406.00,+0.0000,Yaw,+0.0000,Tilt,,,0.000,0,0.0,00*33
$GPZDA,125406.011,13,10,2018,00,00*5A
$GPHDT,,*4F
$GPROT,,V*08
$GPGSA,A,3,25,31,32,26,29,22,,,,,,,2.1,1.2,1.7*3F
$GPRMC,125406.00,A,3625.80136288,N,12325.70862634,E,0.649,24.195,131018,999.9000,E,D*3F
$GPGLL,3625.80136288,N,12325.70862634,E,125406.00,A,D*69
$GPGRS,125406.00,1,0.1,-0.1,-0.1,0.0,-1.5,0.8,,,,,,*6A
$PTNLDG,46.0,16.0,318.0,200,0,4,1,0,,,*3F
$PFUGDP,GP,125406.00,3625.80136,N,12325.70863,E,06,7,DN,1.8,0.9,170,1.4*1F
ks@u_~W@`UptBxwKg{c@vC}O}gyipmjF$GPGGA,125407.00,3625.80164868,N,12325.70854250,E,2,09,0.9,10.761,M,9.764,M,8.8,0753*49
$PTNL,GGK,125407.00,101318,3625.80164868,N,12325.70854250,E,13,09,1.5,EHT20.525,M*7D
$GPVTG,14.08,T,,M,0.68,N,1.25,K,D*0D
$GPGST,125407.00,2.658,0.950,0.777,36.5,0.892,0.842,1.801*65
$PTNL,PJK,125407.00,101318,,,,,13,09,1.5,,M*1A
$PTNL,PJT,WGS84,NONE*21
$PTNL,VGK,125407.00,101318,00000.000,00000.000,00000.000,0,09,1.5,M*0D
$PTNL,VHD,125407.00,101318,0.000,0.000,0.000,0.000,0.000,0.000,13,09,1.5,M*3D
$GPGSV,4,1,11,31,54,295,49,14,68,333,45,22,18,311,35,32,80,082,50*7F
$GPGSV,4,2,11,26,27,213,42,25,52,051,47,29,22,117,42,10,27,190,41*7C
$GPGSV,4,3,11,12,15,040,31*4F
$GPGSV,4,4,11,42,42,146,38,50,42,146,37*75
$PTNL,AVR,125407.00,+0.0000,Yaw,+0.0000,Tilt,,,0.000,0,0.0,00*32
$GPZDA,125407.011,13,10,2018,00,00*5B
$GPHDT,,*4F
$GPROT,,V*08
$GPGSA,A,3,10,14,25,31,32,12,26,29,22,,,,1.5,0.9,1.3*31
$GPRMC,125407.00,A,3625.80164868,N,12325.70854250,E,0.676,14.076,131018,999.9000,E,D*3D
$GPGLL,3625.80164868,N,12325.70854250,E,125407.00,A,D*68
$GPGRS,125407.00,1,0.5,0.1,0.4,-0.1,0.2,3.3,0.3,-1.0,0.8,,,*6C
$PTNLDG,44.0,17.0,318.0,200,0,4,1,0,,,*3C
$PFUGDP,GP,125407.00,3625.80165,N,12325.70854,E,09,7,DN,0.9,0.8,037,2.7*10
lkgyipmjFHgXFVORUyO@lXFVORUEh@|$GPGGA,125408.00,3625.80191238,N,12325.70833344,E,2,09,0.9,10.745,M,9.764,M,9.8,0753*41
$PTNL,GGK,125408.00,101318,3625.80191238,N,12325.70833344,E,13,09,1.5,EHT20.510,M*74
$GPVTG,15.33,T,,M,0.70,N,1.30,K,D*09
$GPGST,125408.00,2.353,0.954,0.779,36.5,0.896,0.845,1.808*64
$PTNL,PJK,125408.00,101318,,,,,13,09,1.5,,M*15
$PTNL,PJT,WGS84,NONE*21
$PTNL,VGK,125408.00,101318,00000.000,00000.000,00000.000,0,09,1.5,M*02
$PTNL,VHD,125408.00,101318,0.000,0.000,0.000,0.000,0.000,0.000,13,09,1.5,M*32
$GPGSV,4,1,11,31,54,295,49,14,68,333,45,22,18,311,36,32,80,082,50*7C
$GPGSV,4,2,11,26,27,213,42,25,52,051,48,29,22,117,44,10,27,190,41*75
$GPGSV,4,3,11,12,15,040,29*46
$GPGSV,4,4,11,42,42,146,37,50,42,146,36*7B
$PTNL,AVR,125408.00,+0.0000,Yaw,+0.0000,Tilt,,,0.000,0,0.0,00*3D
$GPZDA,125408.011,13,10,2018,00,00*54
$GPHDT,,*4F
$GPROT,,V*08
$GPGSA,A,3,10,14,25,31,32,12,26,29,22,,,,1.5,0.9,1.3*31
$GPRMC,125408.00,A,3625.80191238,N,12325.70833344,E,0.700,15.334,131018,999.9000,E,D*36
$GPGLL,3625.80191238,N,12325.70833344,E,125408.00,A,D*67
$GPGRS,125408.00,1,0.4,-0.1,0.4,-0.4,0.2,3.3,0.1,-0.7,0.4,,,*42
$PTNLDG,44.0,14.0,318.0,200,0,4,1,0,,,*3F
$PFUGDP,GP,125408.00,3625.80191,N,12325.70833,E,09,7,DN,1.0,0.8,037,2.4*1E
fyipyTEX@`fyipyTE|@lYFVOFkz{gYFY$GPGGA,125409.00,3625.80191348,N,12325.70836095,E,2,06,1.4,11.202,M,9.764,M,7.8,0753*46
$PTNL,GGK,125409.00,101318,3625.80191348,N,12325.70836095,E,13,06,2.3,EHT20.966,M*7E
$GPVTG,32.15,T,,M,0.68,N,1.25,K,D*05
$GPGST,125409.00,6.754,1.974,1.248,0.8,1.974,1.248,3.692*5A
$PTNL,PJK,125409.00,101318,,,,,13,06,2.3,,M*1E
$PTNL,PJT,WGS84,NONE*21
$PTNL,VGK,125409.00,101318,00000.000,00000.000,00000.000,0,06,2.3,M*09
$PTNL,VHD,125409.00,101318,0.000,0.000,0.000,0.000,0.000,0.000,13,06,2.3,M*39
$GPGSV,4,1,11,31,54,295,49,14,69,333,45,22,18,311,35,32,80,082,51*7F
$GPGSV,4,2,11,26,27,213,41,25,52,051,48,29,22,117,43,10,27,190,41*71
$GPGSV,4,3,11,12,15,040,28*47
$GPGSV,4,4,11,42,42,146,37,50,42,146,38*75
$PTNL,AVR,125409.00,+0.0000,Yaw,+0.0000,Tilt,,,0.000,0,0.0,00*3C
$GPZDA,125409.011,13,10,2018,00,00*55
$GPHDT,,*4F
$GPROT,,V*08
$GPGSA,A,3,10,14,31,32,12,29,,,,,,,2.3,1.4,1.9*31
$GPRMC,125409.00,A,3625.80191348,N,12325.70836095,E,0.677,32.147,131018,999.9000,E,D*39
$GPGLL,3625.80191348,N,12325.70836095,E,125409.00,A,D*6A
$GPGRS,125409.00,1,0.3,0.1,-0.2,0.3,3.6,-0.3,,,,,,*40
$PTNLDG,44.0,15.0,318.0,200,0,4,1,0,,,*3E
$PFUGDP,GP,125409.00,3625.80191,N,12325.70836,E,06,6,DN,2.0,1.2,001,6.8*11
OVjzYkoavoQu~_]gU}wO@|pGVeIB@tQgy$GPGGA,125410.00,3625.80204432,N,12325.70849859,E,2,09,0.9,11.322,M,9.764,M,8.8,0753*44
$PTNL,GGK,125410.00,101318,3625.80204432,N,12325.70849859,E,13,09,1.5,EHT21.086,M*7F
$GPVTG,35.29,T,,M,0.67,N,1.24,K,D*03
$GPGST,125410.00,1.915,1.512,0.893,164.0,1.474,0.954,3.066*53
$PTNL,PJK,125410.00,101318,,,,,13,09,1.5,,M*1C
$PTNL,PJT,WGS84,NONE*21
$PTNL,VGK,125410.00,101318,00000.000,00000.000,00000.000,0,09,1.5,M*0B
$PTNL,VHD,125410.00,101318,0.000,0.000,0.000,0.000,0.000,0.000,13,09,1.5,M*3B
$GPGSV,4,1,11,31,54,295,47,14,69,333,45,22,18,311,33,32,80,082,50*76
$GPGSV,4,2,11,26,27,213,42,25,52,051,47,29,22,117,43,10,27,190,38*73
$GPGSV,4,3,11,12,15,040,28*47
$GPGSV,4,4,11,42,42,146,35,50,42,146,35*7A
$PTNL,AVR,125410.00,+0.0000,Yaw,+0.0000,Tilt,,,0.000,0,0.0,00*34
$GPZDA,125410.011,13,10,2018,00,00*5D
$GPHDT,,*4F
$GPROT,,V*08
$GPGSA,A,3,10,14,25,31,32,12,26,29,22,,,,1.5,0.9,1.3*31
$GPRMC,125410.00,A,3625.80204432,N,12325.70849859,E,0.669,35.286,131018,999.9000,E,D*32
$GPGLL,3625.80204432,N,12325.70849859,E,125410.00,A,D*67
$GPGRS,125410.00,1,-0.1,-0.3,0.4,-0.6,-0.1,2.8,-0.3,-0.7,0.7,,,*6B
$PTNLDG,44.0,15.0,318.0,200,0,4,1,0,,,*3E
$PFUGDP,GP,125410.00,3625.80204,N,12325.70850,E,09,7,DN,1.5,0.9,164,1.9*10
ipmjzn{XFVORUEu@HXFVORUEM@|gyipm$GPGGA,125411.00,3625.80228981,N,12325.70867616,E,2,09,0.9,11.248,M,9.764,M,9.8,0753*4B
$PTNL,GGK,125411.00,101318,3625.80228981,N,12325.70867616,E,13,09,1.5,EHT21.013,M*70
$GPVTG,28.86,T,,M,0.60,N,1.11,K,D*0B
$GPGST,125411.00,1.476,1.450,0.895,164.7,1.418,0.944,2.949*52
$PTNL,PJK,125411.00,101318,,,,,13,09,1.5,,M*1D
$PTNL,PJT,WGS84,NONE*21
$PTNL,VGK,125411.00,101318,00000.000,00000.000,00000.000,0,09,1.5,M*0A
$PTNL,VHD,125411.00,101318,0.000,0.000,0.000,0.000,0.000,0.000,13,09,1.5,M*3A
$GPGSV,4,1,11,31,54,295,47,14,69,333,45,22,18,311,34,32,80,082,49*79
$GPGSV,4,2,11,26,27,213,41,25,52,051,47,29,22,117,42,10,27,190,37*7E
$GPGSV,4,3,11,12,15,040,28*47
$GPGSV,4,4,11,42,42,146,36,50,42,146,37*7B
$PTNL,AVR,125411.00,+0.0000,Yaw,+0.0000,Tilt,,,0.000,0,0.0,00*35
$GPZDA,125411.011,13,10,2018,00,00*5C
$GPHDT,,*4F
$GPROT,,V*08
$GPGSA,A,3,10,14,25,31,32,12,26,29,22,,,,1.5,0.9,1.3*31
$GPRMC,125411.00,A,3625.80228981,N,12325.70867616,E,0.602,28.862,131018,999.9000,E,D*30
$GPGLL,3625.80228981,N,12325.70867616,E,125411.00,A,D*64
$GPGRS,125411.00,1,0.2,-0.2,0.4,-0.4,0.0,2.5,0.0,-0.6,0.8,,,*46
$PTNLDG,42.0,14.0,318.0,200,0,4,1,0,,,*39
$PFUGDP,GP,125411.00,3625.80229,N,12325.70868,E,09,7,DN,1.4,0.9,165,1.5*19
jzTSgyipmjzd[YFVOFkz@CXFVORUEG$GPGGA,125412.00,3625.80259803,N,12325.70875857,E,2,06,1.1,10.871,M,9.764,M,7.8,0753*44
$PTNL,GGK,125412.00,101318,3625.80259803,N,12325.70875857,E,13,06,2.0,EHT20.635,M*7C
$GPVTG,16.27,T,,M,0.71,N,1.31,K,D*0F
$GPGST,125412.00,2.108,1.663,0.899,83.7,0.912,1.656,3.081*6F
$PTNL,PJK,125412.00,101318,,,,,13,06,2.0,,M*17
$PTNL,PJT,WGS84,NONE*21
$PTNL,VGK,125412.00,101318,00000.000,00000.000,00000.000,0,06,2.0,M*00
$PTNL,VHD,125412.00,101318,0.000,0.000,0.000,0.000,0.000,0.000,13,06,2.0,M*30
$GPGSV,4,1,11,31,54,295,48,14,69,333,45,22,18,311,37,32,80,082,50*7D
$GPGSV,4,2,11,26,27,213,41,25,52,051,47,29,22,117,43,10,27,190,38*70
$GPGSV,4,3,11,12,15,040,28*47
$GPGSV,4,4,11,42,42,146,36,50,42,146,37*7B
$PTNL,AVR,125412.00,+0.0000,Yaw,+0.0000,Tilt,,,0.000,0,0.0,00*36
$GPZDA,125412.011,13,10,2018,00,00*5F
$GPHDT,,*4F
$GPROT,,V*08
$GPGSA,A,3,10,14,25,12,26,22,,,,,,,2.0,1.1,1.7*32
$GPRMC,125412.00,A,3625.80259803,N,12325.70875857,E,0.708,16.271,131018,999.9000,E,D*38
$GPGLL,3625.80259803,N,12325.70875857,E,125412.00,A,D*62
$GPGRS,125412.00,1,0.1,-0.3,0.2,2.0,-0.1,0.3,,,,,,*4F
$PTNLDG,43.0,14.0,318.0,200,0,4,1,0,,,*38
$PFUGDP,GP,125412.00,3625.80260,N,12325.70876,E,06,7,DN,1.7,0.9,084,2.1*1D
@\fyipyTe`@PfyfpiUePT|a{_Fs@`xxSCH$GPGGA,125413.00,3625.80284114,N,12325.70886334,E,2,06,1.1,10.584,M,9.764,M,8.8,0753*40
$PTNL,GGK,125413.00,101318,3625.80284114,N,12325.70886334,E,13,06,2.0,EHT20.349,M*7E
$GPVTG,12.07,T,,M,0.75,N,1.39,K,D*05
$GPGST,125413.00,1.613,1.670,0.902,83.7,0.915,1.663,3.095*65
$PTNL,PJK,125413.00,101318,,,,,13,06,2.0,,M*16
$PTNL,PJT,WGS84,NONE*21
$PTNL,VGK,125413.00,101318,00000.000,00000.000,00000.000,0,06,2.0,M*01
$PTNL,VHD,125413.00,101318,0.000,0.000,0.000,0.000,0.000,0.000,13,06,2.0,M*31
$GPGSV,4,1,11,31,54,295,48,14,69,333,45,22,18,311,35,32,80,082,51*7E
$GPGSV,4,2,11,26,27,213,42,25,52,051,48,29,22,117,45,10,27,190,40*75
$GPGSV,4,3,11,12,15,040,25*4A
$GPGSV,4,4,11,42,42,146,36,50,42,146,38*74
$PTNL,AVR,125413.00,+0.0000,Yaw,+0.0000,Tilt,,,0.000,0,0.0,00*37
$GPZDA,125413.011,13,10,2018,00,00*5E
$GPHDT,,*4F
$GPROT,,V*08
$GPGSA,A,3,10,14,25,12,26,22,,,,,,,2.0,1.1,1.7*32
$GPRMC,125413.00,A,3625.80284114,N,12325.70886334,E,0.751,12.068,131018,999.9000,E,D*36
$GPGLL,3625.80284114,N,12325.70886334,E,125413.00,A,D*6E
$GPGRS,125413.00,1,0.1,-0.3,0.2,1.7,0.0,0.2,,,,,,*67
$PTNLDG,41.0,13.0,318.0,200,0,4,1,0,,,*3D
$PFUGDP,GP,125413.00,3625.80284,N,12325.70886,E,06,7,DN,1.7,0.9,084,1.6*1D
FqA@Wwyo`YFVOFkZKkXFVORUeJ@T$GPGGA,125414.00,3625.80301169,N,12325.70892380,E,2,08,1.1,10.656,M,9.764,M,9.8,0753*48
$PTNL,GGK,125414.00,101318,3625.80301169,N,12325.70892380,E,13,08,1.9,EHT20.421,M*78
$GPVTG,26.74,T,,M,0.64,N,1.19,K,D*04
$GPGST,125414.00,0.248,1.392,0.888,166.5,1.370,0.923,2.820*5E
$PTNL,PJK,125414.00,101318,,,,,13,08,1.9,,M*15
$PTNL,PJT,WGS84,NONE*21
$PTNL,VGK,125414.00,101318,00000.000,00000.000,00000.000,0,08,1.9,M*02
$PTNL,VHD,125414.00,101318,0.000,0.000,0.000,0.000,0.000,0.000,13,08,1.9,M*32
$GPGSV,4,1,11,31,54,295,47,14,69,333,45,22,18,311,34,32,80,082,50*71
$GPGSV,4,2,11,26,27,213,42,25,52,051,47,29,22,117,46,10,27,190,41*78
$GPGSV,4,3,11,12,15,040,*4D
$GPGSV,4,4,11,42,42,146,36,50,42,146,38*74
$PTNL,AVR,125414.00,+0.0000,Yaw,+0.0000,Tilt,,,0.000,0,0.0,00*30
$GPZDA,125414.011,13,10,2018,00,00*59
$GPHDT,,*4F
$GPROT,,V*08
$GPGSA,A,3,10,14,25,31,32,26,29,22,,,,,1.9,1.1,1.6*32
$GPRMC,125414.00,A,3625.80301169,N,12325.70892380,E,0.640,26.742,131018,999.9000,E,D*34
$GPGLL,3625.80301169,N,12325.70892380,E,125414.00,A,D*65
$GPGRS,125414.00,1,0.2,-0.1,0.4,-0.4,0.2,0.1,-0.6,0.4,,,,*66
$PTNLDG,42.0,13.0,318.0,200,0,4,1,0,,,*3E
$PFUGDP,GP,125414.00,3625.80301,N,12325.70892,E,08,7,DN,1.4,0.9,166,0.2*16
XFVORUej@dYFVOFkZa{XFVORUe~@`XFV$GPGGA,125415.00,3625.80324478,N,12325.70899225,E,2,06,1.2,10.584,M,9.764,M,7.2,0753*4B
$PTNL,GGK,125415.00,101318,3625.80324478,N,12325.70899225,E,13,06,2.1,EHT20.348,M*73
$GPVTG,39.61,T,,M,0.62,N,1.15,K,D*04
$GPGST,125415.00,0.421,1.581,0.921,172.4,1.572,0.937,2.849*5A
$PTNL,PJK,125415.00,101318,,,,,13,06,2.1,,M*11
$PTNL,PJT,WGS84,NONE*21
$PTNL,VGK,125415.00,101318,00000.000,00000.000,00000.000,0,06,2.1,M*06
$PTNL,VHD,125415.00,101318,0.000,0.000,0.000,0.000,0.000,0.000,13,06,2.1,M*36
$GPGSV,4,1,11,31,54,295,47,14,69,333,45,22,18,311,34,32,80,082,51*70
$GPGSV,4,2,11,26,27,213,41,25,52,051,47,29,22,117,46,10,27,190,41*7B
$GPGSV,4,3,11,12,15,040,*4D
$GPGSV,4,4,11,42,42,146,35,50,42,146,38*77
$PTNL,AVR,125415.00,+0.0000,Yaw,+0.0000,Tilt,,,0.000,0,0.0,00*31
$GPZDA,125415.011,13,10,2018,00,00*58
$GPHDT,,*4F
$GPROT,,V*08
$GPGSA,A,3,25,31,32,26,29,22,,,,,,,2.1,1.2,1.7*3F
$GPRMC,125415.00,A,3625.80324478,N,12325.70899225,E,0.619,39.615,131018,999.9000,E,D*33
$GPGLL,3625.80324478,N,12325.70899225,E,125415.00,A,D*63
$GPGRS,125415.00,1,0.3,-0.6,0.1,0.1,-0.7,0.1,,,,,,*4B
$PTNLDG,41.0,12.0,318.0,200,0,4,1,0,,,*3C
$PFUGDP,GP,125415.00,3625.80324,N,12325.70899,E,06,7,DN,1.6,0.9,172,0.4*14
ORUeA@xgyipmjZ^wYFVOFkZjWgyfp}kZ$GPGGA,125416.00,3625.80344177,N,12325.70910917,E,2,06,1.2,10.620,M,9.764,M,8.2,0753*4C
$PTNL,GGK,125416.00,101318,3625.80344177,N,12325.70910917,E,13,06,2.1,EHT20.385,M*77
$GPVTG,39.93,T,,M,0.65,N,1.20,K,D*08
$GPGST,125416.00,0.373,1.128,0.806,22.1,1.088,0.859,1.937*69
$PTNL,PJK,125416.00,101318,,,,,13,06,2.1,,M*12
$PTNL,PJT,WGS84,NONE*21
$PTNL,VGK,125416.00,101318,00000.000,00000.000,00000.000,0,06,2.1,M*05
$PTNL,VHD,125416.00,101318,0.000,0.000,0.000,0.000,0.000,0.000,13,06,2.1,M*35
$GPGSV,4,1,11,31,54,295,46,14,69,333,45,22,18,311,36,32,80,082,50*72
$GPGSV,4,2,11,26,27,213,40,25,52,051,47,29,22,117,45,10,27,190,42*7A
$GPGSV,4,3,11,12,15,040,*4D
$GPGSV,4,4,11,42,42,146,36,50,42,146,38*74
$PTNL,AVR,125416.00,+0.0000,Yaw,+0.0000,Tilt,,,0.000,0,0.0,00*32
$GPZDA,125416.011,13,10,2018,00,00*5B
$GPHDT,,*4F
$GPROT,,V*08
$GPGSA,A,3,25,31,32,26,29,22,,,,,,,2.1,1.2,1.7*3F
$GPRMC,125416.00,A,3625.80344177,N,12325.70910917,E,0.645,39.935,131018,999.9000,E,D*32
$GPGLL,3625.80344177,N,12325.70910917,E,125416.00,A,D*66
$GPGRS,125416.00,1,0.3,-0.5,0.2,0.2,-0.5,0.2,,,,,,*4A
$PTNLDG,41.0,13.0,318.0,200,0,4,1,0,,,*3D
$PFUGDP,GP,125416.00,3625.80344,N,12325.70911,E,06,7,DN,1.1,0.8,022,0.4*12
HkKAu_~IA`Up`|GP@dXD\I|J@prfyipy$GPGGA,125417.00,3625.80359514,N,12325.70918522,E,2,08,1.1,10.772,M,9.764,M,9.2,0753*48
$PTNL,GGK,125417.00,101318,3625.80359514,N,12325.70918522,E,13,08,1.9,EHT20.536,M*72
$GPVTG,18.21,T,,M,0.64,N,1.19,K,D*09
$GPGST,125417.00,0.286,0.952,0.778,36.5,0.895,0.844,1.807*6B
$PTNL,PJK,125417.00,101318,,,,,13,08,1.9,,M*16
$PTNL,PJT,WGS84,NONE*21
$PTNL,VGK,125417.00,101318,00000.000,00000.000,00000.000,0,08,1.9,M*01
$PTNL,VHD,125417.00,101318,0.000,0.000,0.000,0.000,0.000,0.000,13,08,1.9,M*31
$GPGSV,4,1,11,31,54,295,46,14,69,333,46,22,18,311,36,32,80,082,50*71
$GPGSV,4,2,11,26,27,213,40,25,52,051,47,29,22,117,45,10,26,190,43*7A
$GPGSV,4,3,11,12,15,040,*4D
$GPGSV,4,4,11,42,42,146,38,50,42,146,38*7A
$PTNL,AVR,125417.00,+0.0000,Yaw,+0.0000,Tilt,,,0.000,0,0.0,00*33
$GPZDA,125417.011,13,10,2018,00,00*5A
$GPHDT,,*4F
$GPROT,,V*08
$GPGSA,A,3,10,14,25,31,32,26,29,22,,,,,1.9,1.1,1.6*32
$GPRMC,125417.00,A,3625.80359514,N,12325.70918522,E,0.642,18.205,131018,999.9000,E,D*30
$GPGLL,3625.80359514,N,12325.70918522,E,125417.00,A,D*68
$GPGRS,125417.00,1,0.4,-0.1,0.5,-0.3,0.4,0.5,-0.2,0.4,,,,*63
$PTNLDG,42.0,12.0,318.0,200,0,4,1,0,,,*3F
$PFUGDP,GP,125417.00,3625.80360,N,12325.70919,E,08,7,DN,1.0,0.8,036,0.3*10
TUH@xfyipyTUl@tYFVOFkjcCXFVORUUz$GPGGA,125418.00,3625.80367328,N,12325.70923441,E,2,05,2.1,11.118,M,9.764,M,7.2,0753*44
$PTNL,GGK,125418.00,101318,3625.80367328,N,12325.70923441,E,13,05,4.1,EHT20.882,M*77
$GPVTG,8.71,T,,M,0.72,N,1.33,K,D*32
$GPGST,125418.00,0.462,1.988,1.244,0.9,1.988,1.244,3.713*53
$PTNL,PJK,125418.00,101318,,,,,13,05,4.1,,M*19
$PTNL,PJT,WGS84,NONE*21
$PTNL,VGK,125418.00,101318,00000.000,00000.000,00000.000,0,05,4.1,M*0E
$PTNL,VHD,125418.00,101318,0.000,0.000,0.000,0.000,0.000,0.000,13,05,4.1,M*3E
$GPGSV,4,1,11,31,54,295,48,14,69,333,45,22,18,311,35,32,80,082,50*7F
$GPGSV,4,2,11,26,27,213,39,25,52,051,47,29,22,117,46,10,26,190,43*77
$GPGSV,4,3,11,12,15,040,*4D
$GPGSV,4,4,11,42,42,146,36,50,42,146,37*7B
$PTNL,AVR,125418.00,+0.0000,Yaw,+0.0000,Tilt,,,0.000,0,0.0,00*3C
$GPZDA,125418.011,13,10,2018,00,00*55
$GPHDT,,*4F
$GPROT,,V*08
$GPGSA,A,3,10,14,31,32,29,,,,,,,,4.1,2.1,3.5*3E
$GPRMC,125418.00,A,3625.80367328,N,12325.70923441,E,0.718,8.706,131018,999.9000,E,D*0E
$GPGLL,3625.80367328,N,12325.70923441,E,125418.00,A,D*6F
$GPGRS,125418.00,1,0.5,0.1,-0.1,0.5,0.0,,,,,,,*46
$PTNLDG,41.0,13.0,318.0,200,0,4,1,0,,,*3D
$PFUGDP,GP,125418.00,3625.80367,N,12325.70923,E,05,4,DN,2.0,1.2,001,0.5*15
@xfyipyTUB@XgyipmjjYYFVOFkjicYF$GPGGA,125419.00,3625.80372487,N,12325.70931427,E,2,05,2.1,11.421,M,9.764,M,8.2,0753*40
$PTNL,GGK,125419.00,101318,3625.80372487,N,12325.70931427,E,13,05,4.1,EHT21.185,M*7C
$GPVTG,24.23,T,,M,0.64,N,1.18,K,D*05
$GPGST,125419.00,0.168,1.995,1.249,0.8,1.995,1.249,3.729*55
$PTNL,PJK,125419.00,101318,,,,,13,05,4.1,,M*18
$PTNL,PJT,WGS84,NONE*21
$PTNL,VGK,125419.00,101318,00000.000,00000.000,00000.000,0,05,4.1,M*0F
$PTNL,VHD,125419.00,101318,0.000,0.000,0.000,0.000,0.000,0.000,13,05,4.1,M*3F
$GPGSV,4,1,11,31,54,295,46,14,69,333,45,22,18,311,36,32,80,082,49*7A
$GPGSV,4,2,11,26,27,213,40,25,52,051,47,29,22,117,46,10,26,190,43*79
$GPGSV,4,3,11,12,15,040,*4D
$GPGSV,4,4,11,42,42,146,35,50,42,146,37*78
$PTNL,AVR,125419.00,+0.0000,Yaw,+0.0000,Tilt,,,0.000,0,0.0,00*3D
$GPZDA,125419.011,13,10,2018,00,00*54
$GPHDT,,*4F
$GPROT,,V*08
$GPGSA,A,3,10,14,31,32,29,,,,,,,,4.1,2.1,3.5*3E
$GPRMC,125419.00,A,3625.80372487,N,12325.70931427,E,0.636,24.230,131018,999.9000,E,D*39
$GPGLL,3625.80372487,N,12325.70931427,E,125419.00,A,D*6B
$GPGRS,125419.00,1,0.2,0.0,-0.2,0.3,-0.2,,,,,,,*6B
$PTNLDG,42.0,12.0,318.0,200,0,4,1,0,,,*3F
$PFUGDP,GP,125419.00,3625.80372,N,12325.70931,E,05,4,DN,2.0,1.2,001,0.2*14
VOFkjNXFYOBTUITD_IPNk~_]gU}wO@|$GPGGA,125420.00,3625.80381163,N,12325.70942912,E,2,05,2.1,11.567,M,9.764,M,9.2,0753*44
$PTNL,GGK,125420.00,101318,3625.80381163,N,12325.70942912,E,13,05,4.1,EHT21.332,M*74
$GPVTG,36.54,T,,M,0.62,N,1.16,K,D*0E
$GPGST,125420.00,0.110,2.003,1.254,0.7,2.003,1.254,3.747*57
$PTNL,PJK,125420.00,101318,,,,,13,05,4.1,,M*12
$PTNL,PJT,WGS84,NONE*21
$PTNL,VGK,125420.00,101318,00000.000,00000.000,00000.000,0,05,4.1,M*05
$PTNL,VHD,125420.00,101318,0.000,0.000,0.000,0.000,0.000,0.000,13,05,4.1,M*35
$GPGSV,4,1,11,31,54,295,45,14,69,333,46,22,18,311,37,32,80,082,50*73
$GPGSV,4,2,11,26,27,213,40,25,52,051,47,29,22,117,46,10,26,190,43*79
$GPGSV,4,3,11,12,15,040,*4D
$GPGSV,4,4,11,42,42,146,36,50,42,146,38*74
$PTNL,AVR,125420.00,+0.0000,Yaw,+0.0000,Tilt,,,0.000,0,0.0,00*37
$GPZDA,125420.010,13,10,2018,00,00*5F
$GPHDT,,*4F
$GPROT,,V*08
$GPGSA,A,3,10,14,31,32,29,,,,,,,,4.1,2.1,3.5*3E
$GPRMC,125420.00,A,3625.80381163,N,12325.70942912,E,0.624,36.538,131018,999.9000,E,D*30
$GPGLL,3625.80381163,N,12325.70942912,E,125420.00,A,D*6D
$GPGRS,125420.00,1,0.1,0.0,-0.2,0.2,-0.2,,,,,,,*63
$PTNLDG,41.0,12.0,318.0,200,0,4,1,0,,,*3C
$PFUGDP,GP,125420.00,3625.80381,N,12325.70943,E,05,4,DN,2.0,1.3,001,0.1*15
pGVeIJ@taYFVOFkjRGXFVORUU[@DYFV$GPGGA,125421.00,3625.80414838,N,12325.70957509,E,2,05,1.7,11.145,M,9.764,M,6.0,0753*47
$PTNL,GGK,125421.00,101318,3625.80414838,N,12325.70957509,E,13,05,3.3,EHT20.910,M*75
$GPVTG,28.09,T,,M,0.73,N,1.36,K,D*0B
$GPGST,125421.00,0.307,1.660,0.898,83.5,0.912,1.653,3.074*6F
