$GPGGA,135332.00,3626.21871425,N,12325.72742457,E,2,09,1.0,10.014,M,9.763,M,5.0,0129*46
$PTNL,GGK,135332.00,101318,3626.21871425,N,12325.72742457,E,5,09,1.9,EHT19.777,M*42
$GPVTG,342.26,T,,M,0.33,N,0.61,K,D*3E
$GPGST,135332.00,0.521,1.492,1.345,173.5,1.490,1.347,3.101*57
$PTNL,PJK,135332.00,101318,,,,,5,09,1.9,,M*21
$PTNL,PJT,WGS84,NONE*21
$PTNL,VGK,135332.00,101318,00000.000,00000.000,00000.000,0,09,1.9,M*01
$PTNL,VHD,135332.00,101318,0.000,0.000,0.000,0.000,0.000,0.000,5,09,1.9,M*06
$GPGSV,4,1,11,22,25,286,34,31,65,346,50,16,24,222,40,29,35,088,48*73
$GPGSV,4,2,11,3,18,307,38,25,27,045,46,14,82,130,43,26,53,230,47*41
$GPGSV,4,3,11,32,56,142,48*47
$GPGSV,4,4,11,42,42,146,33,50,42,146,33*7A
$PTNL,AVR,135332.00,+0.0000,Yaw,+0.0000,Tilt,,,0.000,0,0.0,00*32
$GPZDA,135332.011,13,10,2018,00,00*5B
$GPHDT,,*4F
$GPROT,,V*08
$GPGSA,A,3,3,14,25,26,29,31,22,32,16,,,,1.9,1.0,1.6*06
$GPRMC,135332.00,A,3626.21871425,N,12325.72742457,E,0.330,342.261,131018,999.9000,E,D*05
$GPGLL,3626.21871425,N,12325.72742457,E,135332.00,A,D*63
$GPGRS,135332.00,1,0.0,-0.2,0.2,-0.7,-0.3,0.0,1.2,0.4,-0.5,,,*63
$PTNLDG,,,290.0,,0,2,,,,,*0E
$PFUGDP,GP,135332.00,3626.21871,N,12325.72742,E,09,6,DN,1.5,1.3,173,0.5*19
$GPGGA,135333.00,3626.21875757,N,12325.72742040,E,2,09,1.0,10.017,M,9.763,M,6.0,0129*47
$PTNL,GGK,135333.00,101318,3626.21875757,N,12325.72742040,E,5,09,1.9,EHT19.780,M*4B
$GPVTG,16.15,T,,M,0.30,N,0.55,K,D*08
$GPGST,135333.00,0.533,1.493,1.373,171.2,1.491,1.375,3.138*5E
$PTNL,PJK,135333.00,101318,,,,,5,09,1.9,,M*20
$PTNL,PJT,WGS84,NONE*21
$PTNL,VGK,135333.00,101318,00000.000,00000.000,00000.000,0,09,1.9,M*00
$PTNL,VHD,135333.00,101318,0.000,0.000,0.000,0.000,0.000,0.000,5,09,1.9,M*07
$GPGSV,4,1,11,22,25,286,32,31,65,346,49,16,24,222,38,29,35,088,48*72
$GPGSV,4,2,11,3,18,307,40,25,27,045,46,14,82,130,43,26,53,230,46*4F
$GPGSV,4,3,11,32,56,142,49*46
$GPGSV,4,4,11,42,42,146,33,50,42,146,33*7A
$PTNL,AVR,135333.00,+0.0000,Yaw,+0.0000,Tilt,,,0.000,0,0.0,00*33
$GPZDA,135333.011,13,10,2018,00,00*5A
$GPHDT,,*4F
$GPROT,,V*08
$GPGSA,A,3,3,14,25,26,29,31,22,32,16,,,,1.9,1.0,1.6*06
$GPRMC,135333.00,A,3626.21875757,N,12325.72742040,E,0.298,16.151,131018,999.9000,E,D*35
$GPGLL,3626.21875757,N,12325.72742040,E,135333.00,A,D*62
$GPGRS,135333.00,1,0.0,-0.2,0.2,-0.7,-0.3,0.0,1.3,0.4,-0.5,,,*63
$PTNLDG,,,290.0,,0,2,,,,,*0E
$PFUGDP,GP,135333.00,3626.21876,N,12325.72742,E,09,6,DN,1.5,1.4,171,0.5*1A
$GPGGA,135334.00,3626.21880125,N,12325.72741703,E,2,09,1.0,10.021,M,9.763,M,7.0,0129*4E
$PTNL,GGK,135334.00,101318,3626.21880125,N,12325.72741703,E,5,09,1.9,EHT19.784,M*42
$GPVTG,31.30,T,,M,0.33,N,0.61,K,D*0E
$GPGST,135334.00,0.549,1.492,1.321,174.8,1.490,1.322,3.069*5B
$PTNL,PJK,135334.00,101318,,,,,5,09,1.9,,M*27
$PTNL,PJT,WGS84,NONE*21
$PTNL,VGK,135334.00,101318,00000.000,00000.000,00000.000,0,09,1.9,M*07
$PTNL,VHD,135334.00,101318,0.000,0.000,0.000,0.000,0.000,0.000,5,09,1.9,M*00
$GPGSV,4,1,11,22,25,286,36,31,65,346,48,16,24,222,42,29,35,088,47*75
$GPGSV,4,2,11,3,18,307,40,25,27,045,45,14,82,130,43,26,53,230,45*4F
$GPGSV,4,3,11,32,56,142,47*48
$GPGSV,4,4,11,42,42,146,35,50,42,146,34*7B
$PTNL,AVR,135334.00,+0.0000,Yaw,+0.0000,Tilt,,,0.000,0,0.0,00*34
$GPZDA,135334.011,13,10,2018,00,00*5D
$GPHDT,,*4F
$GPROT,,V*08
$GPGSA,A,3,3,14,25,26,29,31,22,32,16,,,,1.9,1.0,1.6*06
$GPRMC,135334.00,A,3626.21880125,N,12325.72741703,E,0.329,31.299,131018,999.9000,E,D*31
$GPGLL,3626.21880125,N,12325.72741703,E,135334.00,A,D*6F
$GPGRS,135334.00,1,0.0,-0.2,0.2,-0.7,-0.3,0.0,1.3,0.4,-0.5,,,*64
$PTNLDG,,,290.0,,0,2,,,,,*0E
$PFUGDP,GP,135334.00,3626.21880,N,12325.72742,E,09,7,DN,1.5,1.3,175,0.5*16
$GPGGA,135335.00,3626.21884526,N,12325.72741473,E,2,09,1.0,10.027,M,9.763,M,7.0,0129*4E
$PTNL,GGK,135335.00,101318,3626.21884526,N,12325.72741473,E,5,09,1.9,EHT19.790,M*41
$GPVTG,3.82,T,,M,0.31,N,0.57,K,D*31
$GPGST,135335.00,0.567,1.492,1.320,174.9,1.490,1.322,3.069*56
$PTNL,PJK,135335.00,101318,,,,,5,09,1.9,,M*26
$PTNL,PJT,WGS84,NONE*21
$PTNL,VGK,135335.00,101318,00000.000,00000.000,00000.000,0,09,1.9,M*06
$PTNL,VHD,135335.00,101318,0.000,0.000,0.000,0.000,0.000,0.000,5,09,1.9,M*01
$GPGSV,4,1,11,22,25,286,40,31,65,346,49,16,24,222,38,29,35,088,48*77
$GPGSV,4,2,11,3,18,307,41,25,27,045,46,14,82,130,43,26,53,230,46*4E
$GPGSV,4,3,11,32,56,142,47*48
$GPGSV,4,4,11,42,42,146,31,50,42,146,32*79
$PTNL,AVR,135335.00,+0.0000,Yaw,+0.0000,Tilt,,,0.000,0,0.0,00*35
$GPZDA,135335.011,13,10,2018,00,00*5C
$GPHDT,,*4F
$GPROT,,V*08
$GPGSA,A,3,3,14,25,26,29,31,22,32,16,,,,1.9,1.0,1.6*06
$GPRMC,135335.00,A,3626.21884526,N,12325.72741473,E,0.307,3.823,131018,999.9000,E,D*01
$GPGLL,3626.21884526,N,12325.72741473,E,135335.00,A,D*69
$GPGRS,135335.00,1,0.0,-0.2,0.2,-0.7,-0.4,0.0,1.3,0.4,-0.5,,,*62
$PTNLDG,,,290.0,,0,2,,,,,*0E
$PFUGDP,GP,135335.00,3626.21885,N,12325.72741,E,09,7,DN,1.5,1.3,175,0.6*12
$GPGGA,135336.00,3626.21888944,N,12325.72741192,E,2,09,1.0,10.032,M,9.763,M,7.0,0129*47
$PTNL,GGK,135336.00,101318,3626.21888944,N,12325.72741192,E,5,09,1.9,EHT19.795,M*49
$GPVTG,327.08,T,,M,0.46,N,0.86,K,D*3A
$GPGST,135336.00,0.565,1.492,1.320,174.9,1.490,1.322,3.069*57
$PTNL,PJK,135336.00,101318,,,,,5,09,1.9,,M*25
$PTNL,PJT,WGS84,NONE*21
$PTNL,VGK,135336.00,101318,00000.000,00000.000,00000.000,0,09,1.9,M*05
$PTNL,VHD,135336.00,101318,0.000,0.000,0.000,0.000,0.000,0.000,5,09,1.9,M*02
$GPGSV,4,1,11,22,25,286,38,31,65,346,48,16,24,222,40,29,35,088,48*76
$GPGSV,4,2,11,3,18,307,41,25,27,045,46,14,82,130,43,26,53,230,46*4E
$GPGSV,4,3,11,32,56,142,48*47
$GPGSV,4,4,11,42,42,146,32,50,42,146,33*7B
$PTNL,AVR,135336.00,+0.0000,Yaw,+0.0000,Tilt,,,0.000,0,0.0,00*36
$GPZDA,135336.011,13,10,2018,00,00*5F
$GPHDT,,*4F
$GPROT,,V*08
$GPGSA,A,3,3,14,25,26,29,31,22,32,16,,,,1.9,1.0,1.6*06
$GPRMC,135336.00,A,3626.21888944,N,12325.72741192,E,0.462,327.084,131018,999.9000,E,D*08
$GPGLL,3626.21888944,N,12325.72741192,E,135336.00,A,D*64
$GPGRS,135336.00,1,-0.1,-0.2,0.2,-0.7,-0.4,0.0,1.3,0.4,-0.6,,,*4E
$PTNLDG,,,290.0,,0,2,,,,,*0E
$PFUGDP,GP,135336.00,3626.21889,N,12325.72741,E,09,7,DN,1.5,1.3,175,0.6*1D
$GPGGA,135337.00,3626.21893411,N,12325.72740676,E,2,09,1.0,10.035,M,9.763,M,4.0,0129*49
$PTNL,GGK,135337.00,101318,3626.21893411,N,12325.72740676,E,5,09,1.9,EHT19.798,M*4E
$GPVTG,329.27,T,,M,0.40,N,0.74,K,D*32
$GPGST,135337.00,0.550,1.492,1.321,174.9,1.490,1.322,3.069*51
$PTNL,PJK,135337.00,101318,,,,,5,09,1.9,,M*24
$PTNL,PJT,WGS84,NONE*21
$PTNL,VGK,135337.00,101318,00000.000,00000.000,00000.000,0,09,1.9,M*04
$PTNL,VHD,135337.00,101318,0.000,0.000,0.000,0.000,0.000,0.000,5,09,1.9,M*03
$GPGSV,4,1,11,22,25,286,37,31,65,346,50,16,24,222,39,29,35,088,47*71
$GPGSV,4,2,11,3,18,307,39,25,27,045,46,14,82,130,43,26,53,230,47*40
$GPGSV,4,3,11,32,56,142,48*47
$GPGSV,4,4,11,42,42,146,33,50,42,146,33*7A
$PTNL,AVR,135337.00,+0.0000,Yaw,+0.0000,Tilt,,,0.000,0,0.0,00*37
$GPZDA,135337.011,13,10,2018,00,00*5E
$GPHDT,,*4F
$GPROT,,V*08
$GPGSA,A,3,3,14,25,26,29,31,22,32,16,,,,1.9,1.0,1.6*06
$GPRMC,135337.00,A,3626.21893411,N,12325.72740676,E,0.398,329.272,131018,999.9000,E,D*05
$GPGLL,3626.21893411,N,12325.72740676,E,135337.00,A,D*6E
$GPGRS,135337.00,1,0.0,-0.2,0.2,-0.7,-0.4,0.0,1.3,0.4,-0.6,,,*63
$PTNLDG,,,290.0,,0,2,,,,,*0E
$PFUGDP,GP,135337.00,3626.21893,N,12325.72741,E,09,7,DN,1.5,1.3,175,0.6*17
$GPGGA,135338.00,3626.21897844,N,12325.72740088,E,2,09,1.0,10.037,M,9.763,M,5.0,0129*4A
$PTNL,GGK,135338.00,101318,3626.21897844,N,12325.72740088,E,5,09,1.9,EHT19.800,M*40
$GPVTG,8.02,T,,M,0.30,N,0.55,K,D*31
$GPGST,135338.00,0.548,1.492,1.352,173.0,1.490,1.355,3.111*53
$PTNL,PJK,135338.00,101318,,,,,5,09,1.9,,M*2B
$PTNL,PJT,WGS84,NONE*21
$PTNL,VGK,135338.00,101318,00000.000,00000.000,00000.000,0,09,1.9,M*0B
$PTNL,VHD,135338.00,101318,0.000,0.000,0.000,0.000,0.000,0.000,5,09,1.9,M*0C
$GPGSV,4,1,11,22,25,286,34,31,65,346,50,16,24,222,36,29,35,088,47*7D
$GPGSV,4,2,11,3,18,307,39,25,27,045,46,14,82,130,43,26,53,230,46*41
$GPGSV,4,3,11,32,56,142,47*48
$GPGSV,4,4,11,42,42,146,32,50,42,146,33*7B
$PTNL,AVR,135338.00,+0.0000,Yaw,+0.0000,Tilt,,,0.000,0,0.0,00*38
$GPZDA,135338.011,13,10,2018,00,00*51
$GPHDT,,*4F
$GPROT,,V*08
$GPGSA,A,3,3,14,25,26,29,31,22,32,16,,,,1.9,1.0,1.6*06
$GPRMC,135338.00,A,3626.21897844,N,12325.72740088,E,0.298,8.016,131018,999.9000,E,D*04
$GPGLL,3626.21897844,N,12325.72740088,E,135338.00,A,D*6E
$GPGRS,135338.00,1,0.0,-0.2,0.2,-0.7,-0.3,0.0,1.3,0.4,-0.6,,,*6B
$PTNLDG,,,290.0,,0,2,,,,,*0E
$PFUGDP,GP,135338.00,3626.21898,N,12325.72740,E,09,6,DN,1.5,1.4,173,0.5*11
$GPGGA,135339.00,3626.21902287,N,12325.72739559,E,2,09,1.0,10.040,M,9.763,M,6.0,0129*47
$PTNL,GGK,135339.00,101318,3626.21902287,N,12325.72739559,E,5,09,1.9,EHT19.803,M*4D
$GPVTG,31.93,T,,M,0.32,N,0.59,K,D*0D
$GPGST,135339.00,0.554,1.492,1.320,174.9,1.490,1.322,3.069*5A
$PTNL,PJK,135339.00,101318,,,,,5,09,1.9,,M*2A
$PTNL,PJT,WGS84,NONE*21
$PTNL,VGK,135339.00,101318,00000.000,00000.000,00000.000,0,09,1.9,M*0A
$PTNL,VHD,135339.00,101318,0.000,0.000,0.000,0.000,0.000,0.000,5,09,1.9,M*0D
$GPGSV,4,1,11,22,25,286,35,31,65,346,49,16,24,222,39,29,35,088,47*7B
$GPGSV,4,2,11,3,18,307,40,25,27,045,46,14,82,130,43,26,53,230,47*4E
$GPGSV,4,3,11,32,56,142,49*46
$GPGSV,4,4,11,42,42,146,33,50,42,146,34*7D
$PTNL,AVR,135339.00,+0.0000,Yaw,+0.0000,Tilt,,,0.000,0,0.0,00*39
$GPZDA,135339.011,13,10,2018,00,00*50
$GPHDT,,*4F
$GPROT,,V*08
$GPGSA,A,3,3,14,25,26,29,31,22,32,16,,,,1.9,1.0,1.6*06
$GPRMC,135339.00,A,3626.21902287,N,12325.72739559,E,0.320,31.934,131018,999.9000,E,D*3B
$GPGLL,3626.21902287,N,12325.72739559,E,135339.00,A,D*60
$GPGRS,135339.00,1,0.0,-0.2,0.2,-0.7,-0.4,0.0,1.3,0.4,-0.6,,,*6D
$PTNLDG,,,291.0,,0,2,,,,,*0F
$PFUGDP,GP,135339.00,3626.21902,N,12325.72740,E,09,7,DN,1.5,1.3,175,0.6*11
$GPGGA,135340.00,3626.21906717,N,12325.72739186,E,2,09,1.0,10.043,M,9.763,M,7.0,0129*45
$PTNL,GGK,135340.00,101318,3626.21906717,N,12325.72739186,E,5,09,1.9,EHT19.806,M*48
$GPVTG,14.79,T,,M,0.33,N,0.61,K,D*04
$GPGST,135340.00,0.554,1.492,1.320,174.9,1.490,1.322,3.069*54
$PTNL,PJK,135340.00,101318,,,,,5,09,1.9,,M*24
$PTNL,PJT,WGS84,NONE*21
$PTNL,VGK,135340.00,101318,00000.000,00000.000,00000.000,0,09,1.9,M*04
$PTNL,VHD,135340.00,101318,0.000,0.000,0.000,0.000,0.000,0.000,5,09,1.9,M*03
$GPGSV,4,1,11,22,25,286,40,31,65,346,48,16,24,222,39,29,35,088,48*77
$GPGSV,4,2,11,3,18,307,40,25,27,045,46,14,82,130,42,26,53,230,46*4E
$GPGSV,4,3,11,32,56,142,48*47
$GPGSV,4,4,11,42,42,146,31,50,42,146,31*7A
$PTNL,AVR,135340.00,+0.0000,Yaw,+0.0000,Tilt,,,0.000,0,0.0,00*37
$GPZDA,135340.011,13,10,2018,00,00*5E
$GPHDT,,*4F
$GPROT,,V*08
$GPGSA,A,3,3,14,25,26,29,31,22,32,16,,,,1.9,1.0,1.6*06
$GPRMC,135340.00,A,3626.21906717,N,12325.72739186,E,0.332,14.794,131018,999.9000,E,D*3B
$GPGLL,3626.21906717,N,12325.72739186,E,135340.00,A,D*60
$GPGRS,135340.00,1,0.0,-0.2,0.2,-0.7,-0.4,0.0,1.3,0.4,-0.6,,,*63
$PTNLDG,,,291.0,,0,2,,,,,*0F
$PFUGDP,GP,135340.00,3626.21907,N,12325.72739,E,09,7,DN,1.5,1.3,175,0.6*14
$GPGGA,135341.00,3626.21911145,N,12325.72738851,E,2,09,1.0,10.048,M,9.763,M,7.0,0129*4A
$PTNL,GGK,135341.00,101318,3626.21911145,N,12325.72738851,E,5,09,1.9,EHT19.811,M*4A
$GPVTG,333.41,T,,M,0.37,N,0.69,K,D*35
$GPGST,135341.00,0.542,1.492,1.320,174.9,1.490,1.322,3.070*5A
$PTNL,PJK,135341.00,101318,,,,,5,09,1.9,,M*25
$PTNL,PJT,WGS84,NONE*21
$PTNL,VGK,135341.00,101318,00000.000,00000.000,00000.000,0,09,1.9,M*05
$PTNL,VHD,135341.00,101318,0.000,0.000,0.000,0.000,0.000,0.000,5,09,1.9,M*02
$GPGSV,4,1,11,22,25,286,38,31,65,346,49,16,24,222,40,29,35,088,48*77
$GPGSV,4,2,11,3,18,307,40,25,27,045,46,14,82,130,43,26,53,230,46*4F
$GPGSV,4,3,11,32,56,142,48*47
$GPGSV,4,4,11,42,42,146,31,50,42,146,32*79
$PTNL,AVR,135341.00,+0.0000,Yaw,+0.0000,Tilt,,,0.000,0,0.0,00*36
$GPZDA,135341.011,13,10,2018,00,00*5F
$GPHDT,,*4F
$GPROT,,V*08
$GPGSA,A,3,3,14,25,26,29,31,22,32,16,,,,1.9,1.0,1.6*06
$GPRMC,135341.00,A,3626.21911145,N,12325.72738851,E,0.373,333.409,131018,999.9000,E,D*0B
$GPGLL,3626.21911145,N,12325.72738851,E,135341.00,A,D*64
$GPGRS,135341.00,1,-0.1,-0.2,0.2,-0.7,-0.3,0.0,1.2,0.4,-0.6,,,*48
$PTNLDG,,,291.0,,0,2,,,,,*0F
$PFUGDP,GP,135341.00,3626.21911,N,12325.72739,E,09,7,DN,1.5,1.3,175,0.5*11
$GPGGA,135342.00,3626.21915517,N,12325.72738448,E,2,09,1.0,10.050,M,9.763,M,7.0,0129*43
$PTNL,GGK,135342.00,101318,3626.21915517,N,12325.72738448,E,5,09,1.9,EHT19.813,M*48
$GPVTG,323.86,T,,M,0.37,N,0.68,K,D*3E
$GPGST,135342.00,0.532,1.492,1.356,172.7,1.490,1.359,3.117*5B
$PTNL,PJK,135342.00,101318,,,,,5,09,1.9,,M*26
$PTNL,PJT,WGS84,NONE*21
$PTNL,VGK,135342.00,101318,00000.000,00000.000,00000.000,0,09,1.9,M*06
$PTNL,VHD,135342.00,101318,0.000,0.000,0.000,0.000,0.000,0.000,5,09,1.9,M*01
$GPGSV,4,1,11,22,25,286,33,31,65,346,49,16,24,222,37,29,35,088,47*73
$GPGSV,4,2,11,3,18,307,40,25,27,045,45,14,82,130,43,26,53,230,47*4D
$GPGSV,4,3,11,32,56,142,49*46
$GPGSV,4,4,11,42,42,146,33,50,42,146,34*7D
$PTNL,AVR,135342.00,+0.0000,Yaw,+0.0000,Tilt,,,0.000,0,0.0,00*35
$GPZDA,135342.011,13,10,2018,00,00*5C
$GPHDT,,*4F
$GPROT,,V*08
$GPGSA,A,3,3,14,25,26,29,31,22,32,16,,,,1.9,1.0,1.6*06
$GPRMC,135342.00,A,3626.21915517,N,12325.72738448,E,0.368,323.858,131018,999.9000,E,D*08
$GPGLL,3626.21915517,N,12325.72738448,E,135342.00,A,D*64
$GPGRS,135342.00,1,-0.1,-0.2,0.2,-0.7,-0.4,0.0,1.2,0.4,-0.6,,,*4C
$PTNLDG,,,291.0,,0,2,,,,,*0F
$PFUGDP,GP,135342.00,3626.21916,N,12325.72738,E,09,6,DN,1.5,1.4,173,0.5*14
Oo{I]A|oZxIHp_M[C$GPGGA,135343.00,3626.21919839,N,12325.72737993,E,2,09,1.0,10.051,M,9.763,M,4.0,0129*49
$PTNL,GGK,135343.00,101318,3626.21919839,N,12325.72737993,E,5,09,1.9,EHT19.814,M*47
$GPVTG,356.50,T,,M,0.32,N,0.59,K,D*30
$GPGST,135343.00,0.542,1.493,1.371,171.4,1.490,1.374,3.137*54
$PTNL,PJK,135343.00,101318,,,,,5,09,1.9,,M*27
$PTNL,PJT,WGS84,NONE*21
$PTNL,VGK,135343.00,101318,00000.000,00000.000,00000.000,0,09,1.9,M*07
$PTNL,VHD,135343.00,101318,0.000,0.000,0.000,0.000,0.000,0.000,5,09,1.9,M*00
$GPGSV,4,1,11,22,25,286,32,31,65,346,49,16,24,222,36,29,35,088,47*73
$GPGSV,4,2,11,3,18,307,39,25,27,045,46,14,82,130,43,26,53,230,46*41
$GPGSV,4,3,11,32,56,142,49*46
$GPGSV,4,4,11,42,42,146,31,50,42,146,32*79
$PTNL,AVR,135343.00,+0.0000,Yaw,+0.0000,Tilt,,,0.000,0,0.0,00*34
$GPZDA,135343.011,13,10,2018,00,00*5D
$GPHDT,,*4F
$GPROT,,V*08
$GPGSA,A,3,3,14,25,26,29,31,22,32,16,,,,1.9,1.0,1.6*06
$GPRMC,135343.00,A,3626.21919839,N,12325.72737993,E,0.321,356.498,131018,999.9000,E,D*0F
$GPGLL,3626.21919839,N,12325.72737993,E,135343.00,A,D*6C
$GPGRS,135343.00,1,0.0,-0.2,0.2,-0.7,-0.4,0.0,1.3,0.4,-0.6,,,*60
$PTNLDG,36.0,4.0,291.0,200,0,3,0,100,,,*0C
$PFUGDP,GP,135343.00,3626.21920,N,12325.72738,E,09,6,DN,1.5,1.4,171,0.5*12
a@GEF}kbpLrlAib\i@^^@_@BVjhc{_^AzC$GPGGA,135344.00,3626.21924084,N,12325.72737676,E,2,09,1.0,10.054,M,9.763,M,5.0,0129*4E
$PTNL,GGK,135344.00,101318,3626.21924084,N,12325.72737676,E,5,09,1.9,EHT19.817,M*47
$GPVTG,20.29,T,,M,0.30,N,0.55,K,D*02
$GPGST,135344.00,0.574,1.493,1.374,171.1,1.490,1.377,3.142*57
$PTNL,PJK,135344.00,101318,,,,,5,09,1.9,,M*20
$PTNL,PJT,WGS84,NONE*21
$PTNL,VGK,135344.00,101318,00000.000,00000.000,00000.000,0,09,1.9,M*00
$PTNL,VHD,135344.00,101318,0.000,0.000,0.000,0.000,0.000,0.000,5,09,1.9,M*07
$GPGSV,4,1,11,22,25,286,32,31,65,346,49,16,24,222,39,29,35,088,47*7C
$GPGSV,4,2,11,3,18,307,40,25,27,045,46,14,82,130,44,26,53,230,47*49
$GPGSV,4,3,11,32,56,142,48*47
$GPGSV,4,4,11,42,42,146,33,50,42,146,32*7B
$PTNL,AVR,135344.00,+0.0000,Yaw,+0.0000,Tilt,,,0.000,0,0.0,00*33
$GPZDA,135344.011,13,10,2018,00,00*5A
$GPHDT,,*4F
$GPROT,,V*08
$GPGSA,A,3,3,14,25,26,29,31,22,32,16,,,,1.9,1.0,1.6*06
$GPRMC,135344.00,A,3626.21924084,N,12325.72737676,E,0.298,20.292,131018,999.9000,E,D*31
$GPGLL,3626.21924084,N,12325.72737676,E,135344.00,A,D*6F
$GPGRS,135344.00,1,0.0,-0.2,0.2,-0.7,-0.4,0.0,1.3,0.4,-0.5,,,*64
$PTNLDG,36.0,6.0,291.0,200,0,3,0,100,,,*0E
$PFUGDP,GP,135344.00,3626.21924,N,12325.72738,E,09,6,DN,1.5,1.4,171,0.6*12
Vb]FooDOSUS~W]CWoMo{z]}CHXK]w@$GPGGA,135345.00,3626.21928411,N,12325.72737351,E,2,09,1.0,10.056,M,9.763,M,6.0,0129*4A
$PTNL,GGK,135345.00,101318,3626.21928411,N,12325.72737351,E,5,09,1.9,EHT19.819,M*4C
$GPVTG,11.72,T,,M,0.25,N,0.47,K,D*09
$GPGST,135345.00,0.592,1.491,1.320,174.9,1.490,1.322,3.070*50
$PTNL,PJK,135345.00,101318,,,,,5,09,1.9,,M*21
$PTNL,PJT,WGS84,NONE*21
$PTNL,VGK,135345.00,101318,00000.000,00000.000,00000.000,0,09,1.9,M*01
$PTNL,VHD,135345.00,101318,0.000,0.000,0.000,0.000,0.000,0.000,5,09,1.9,M*06
$GPGSV,4,1,11,22,25,286,37,31,65,346,48,16,24,222,42,29,35,088,47*74
$GPGSV,4,2,11,3,18,307,39,25,27,045,46,14,82,130,44,26,53,230,46*46
$GPGSV,4,3,11,32,56,142,48*47
$GPGSV,4,4,11,42,42,146,32,50,42,146,34*7C
$PTNL,AVR,135345.00,+0.0000,Yaw,+0.0000,Tilt,,,0.000,0,0.0,00*32
$GPZDA,135345.011,13,10,2018,00,00*5B
$GPHDT,,*4F
$GPROT,,V*08
$GPGSA,A,3,3,14,25,26,29,31,22,32,16,,,,1.9,1.0,1.6*06
$GPRMC,135345.00,A,3626.21928411,N,12325.72737351,E,0.253,11.717,131018,999.9000,E,D*39
$GPGLL,3626.21928411,N,12325.72737351,E,135345.00,A,D*6A
$GPGRS,135345.00,1,0.0,-0.2,0.2,-0.7,-0.4,0.0,1.4,0.4,-0.5,,,*62
$PTNLDG,36.0,8.0,291.0,200,0,3,0,20,,,*33
$PFUGDP,GP,135345.00,3626.21928,N,12325.72737,E,09,7,DN,1.5,1.3,175,0.6*12
q|_\HDL|krsLrliU]IVGckQC{Kzx|xO$GPGGA,135346.00,3626.21932780,N,12325.72736981,E,2,09,1.0,10.059,M,9.763,M,7.0,0129*41
$PTNL,GGK,135346.00,101318,3626.21932780,N,12325.72736981,E,5,09,1.9,EHT19.822,M*41
$GPVTG,349.36,T,,M,0.31,N,0.57,K,D*33
$GPGST,135346.00,0.580,1.491,1.320,174.9,1.490,1.322,3.070*50
$PTNL,PJK,135346.00,101318,,,,,5,09,1.9,,M*22
$PTNL,PJT,WGS84,NONE*21
$PTNL,VGK,135346.00,101318,00000.000,00000.000,00000.000,0,09,1.9,M*02
$PTNL,VHD,135346.00,101318,0.000,0.000,0.000,0.000,0.000,0.000,5,09,1.9,M*05
$GPGSV,4,1,11,22,25,286,38,31,65,346,48,16,24,222,39,29,35,088,48*78
$GPGSV,4,2,11,3,18,307,39,25,27,045,46,14,82,130,43,26,53,230,45*42
$GPGSV,4,3,11,32,56,142,48*47
$GPGSV,4,4,11,42,42,146,32,50,42,146,33*7B
$PTNL,AVR,135346.00,+0.0000,Yaw,+0.0000,Tilt,,,0.000,0,0.0,00*31
$GPZDA,135346.011,13,10,2018,00,00*58
$GPHDT,,*4F
$GPROT,,V*08
$GPGSA,A,3,3,14,25,26,29,31,22,32,16,,,,1.9,1.0,1.6*06
$GPRMC,135346.00,A,3626.21932780,N,12325.72736981,E,0.309,349.359,131018,999.9000,E,D*02
$GPGLL,3626.21932780,N,12325.72736981,E,135346.00,A,D*6F
$GPGRS,135346.00,1,0.0,-0.2,0.2,-0.7,-0.4,0.0,1.3,0.4,-0.6,,,*65
$PTNLDG,37.0,10.0,291.0,200,0,3,0,20,,,*0B
$PFUGDP,GP,135346.00,3626.21933,N,12325.72737,E,09,7,DN,1.5,1.3,175,0.6*1B
BA@aOv~MzPpULNSUS~W]yWGpPDGB}Ch[Gt$GPGGA,135347.00,3626.21937145,N,12325.72736598,E,2,09,1.0,10.062,M,9.763,M,7.0,0129*46
$PTNL,GGK,135347.00,101318,3626.21937145,N,12325.72736598,E,5,09,1.9,EHT19.825,M*49
$GPVTG,346.18,T,,M,0.38,N,0.70,K,D*3C
$GPGST,135347.00,0.580,1.492,1.347,173.3,1.490,1.349,3.106*53
$PTNL,PJK,135347.00,101318,,,,,5,09,1.9,,M*23
$PTNL,PJT,WGS84,NONE*21
$PTNL,VGK,135347.00,101318,00000.000,00000.000,00000.000,0,09,1.9,M*03
$PTNL,VHD,135347.00,101318,0.000,0.000,0.000,0.000,0.000,0.000,5,09,1.9,M*04
$GPGSV,4,1,11,22,25,286,34,31,65,347,48,16,24,222,42,29,35,088,47*76
$GPGSV,4,2,11,3,18,307,39,25,27,045,46,14,82,130,43,26,53,230,45*42
$GPGSV,4,3,11,32,56,142,48*47
$GPGSV,4,4,11,42,42,146,32,50,42,146,32*7A
$PTNL,AVR,135347.00,+0.0000,Yaw,+0.0000,Tilt,,,0.000,0,0.0,00*30
$GPZDA,135347.011,13,10,2018,00,00*59
$GPHDT,,*4F
$GPROT,,V*08
$GPGSA,A,3,3,14,25,26,29,31,22,32,16,,,,1.9,1.0,1.6*06
$GPRMC,135347.00,A,3626.21937145,N,12325.72736598,E,0.378,346.176,131018,999.9000,E,D*0B
$GPGLL,3626.21937145,N,12325.72736598,E,135347.00,A,D*60
$GPGRS,135347.00,1,0.0,-0.2,0.2,-0.7,-0.4,0.0,1.3,0.4,-0.6,,,*64
$PTNLDG,37.0,11.0,291.0,200,0,4,0,0,,,*3F
$PFUGDP,GP,135347.00,3626.21937,N,12325.72737,E,09,6,DN,1.5,1.3,173,0.6*19
wO`ZxAa@xyLTmrLrliU]vV_``uj|oWF$GPGGA,135348.00,3626.21941463,N,12325.72736265,E,2,09,1.0,10.065,M,9.763,M,7.0,0129*4B
$PTNL,GGK,135348.00,101318,3626.21941463,N,12325.72736265,E,5,09,1.9,EHT19.828,M*4E
$GPVTG,346.78,T,,M,0.32,N,0.60,K,D*31
$GPGST,135348.00,0.593,1.492,1.356,172.7,1.490,1.358,3.117*5B
$PTNL,PJK,135348.00,101318,,,,,5,09,1.9,,M*2C
$PTNL,PJT,WGS84,NONE*21
$PTNL,VGK,135348.00,101318,00000.000,00000.000,00000.000,0,09,1.9,M*0C
$PTNL,VHD,135348.00,101318,0.000,0.000,0.000,0.000,0.000,0.000,5,09,1.9,M*0B
$GPGSV,4,1,11,22,25,286,33,31,65,347,49,16,24,222,41,29,35,088,46*72
$GPGSV,4,2,11,3,18,307,41,25,27,045,46,14,82,130,43,26,53,230,46*4E
$GPGSV,4,3,11,32,56,142,49*46
$GPGSV,4,4,11,42,42,146,31,50,42,146,33*78
$PTNL,AVR,135348.00,+0.0000,Yaw,+0.0000,Tilt,,,0.000,0,0.0,00*3F
$GPZDA,135348.011,13,10,2018,00,00*56
$GPHDT,,*4F
$GPROT,,V*08
$GPGSA,A,3,3,14,25,26,29,31,22,32,16,,,,1.9,1.0,1.6*06
$GPRMC,135348.00,A,3626.21941463,N,12325.72736265,E,0.322,346.775,131018,999.9000,E,D*0B
$GPGLL,3626.21941463,N,12325.72736265,E,135348.00,A,D*6A
$GPGRS,135348.00,1,0.0,-0.2,0.2,-0.7,-0.4,0.0,1.3,0.4,-0.6,,,*6B
$PTNLDG,36.0,11.0,291.0,200,0,4,0,0,,,*3E
$PFUGDP,GP,135348.00,3626.21941,N,12325.72736,E,09,6,DN,1.5,1.4,173,0.6*11
hD`EAu_|a@lJ[`D_OPUS~W]VWgpPDIb@|$GPGGA,135349.00,3626.21969662,N,12325.72738481,E,2,06,1.4,9.869,M,9.763,M,8.2,0620*75
$PTNL,GGK,135349.00,101318,3626.21969662,N,12325.72738481,E,13,06,2.8,EHT19.632,M*7B
$GPVTG,349.63,T,,M,0.31,N,0.57,K,D*33
$GPGST,135349.00,15.286,4.362,2.886,174.6,4.351,2.902,9.897*60
$PTNL,PJK,135349.00,101318,,,,,13,06,2.8,,M*17
$PTNL,PJT,WGS84,NONE*21
$PTNL,VGK,135349.00,101318,00000.000,00000.000,00000.000,0,06,2.8,M*00
$PTNL,VHD,135349.00,101318,0.000,0.000,0.000,0.000,0.000,0.000,13,06,2.8,M*30
$GPGSV,4,1,11,22,25,286,34,31,65,347,48,16,24,222,38,29,35,088,47*7B
$GPGSV,4,2,11,3,18,307,40,25,27,045,46,14,82,130,43,26,53,230,46*4F
$GPGSV,4,3,11,32,56,142,49*46
$GPGSV,4,4,11,42,42,146,,50,42,146,33*7A
$PTNL,AVR,135349.00,+0.0000,Yaw,+0.0000,Tilt,,,0.000,0,0.0,00*3E
$GPZDA,135349.011,13,10,2018,00,00*57
$GPHDT,,*4F
$GPROT,,V*08
$GPGSA,A,3,25,26,29,31,22,32,,,,,,,2.8,1.4,2.5*31
$GPRMC,135349.00,A,3626.21969662,N,12325.72738481,E,0.307,349.627,131018,999.9000,E,D*0F
$GPGLL,3626.21969662,N,12325.72738481,E,135349.00,A,D*60
$GPGRS,135349.00,1,3.2,-2.4,-0.3,0.0,3.0,-2.3,,,,,,*6C
$PTNLDG,38.0,11.0,291.0,200,0,4,1,0,,,*31
$PFUGDP,GP,135349.00,3626.21970,N,12325.72738,E,06,6,DN,4.4,2.9,175,15.3*2E
o~pxHpBBba@GxkDT]MsMSVjbkiH\^@oed$GPGGA,135350.00,3626.22030454,N,12325.72737606,E,2,06,1.4,9.401,M,9.763,M,9.2,0620*7D
$PTNL,GGK,135350.00,101318,3626.22030454,N,12325.72737606,E,13,06,2.8,EHT19.164,M*74
$GPVTG,358.47,T,,M,0.31,N,0.57,K,D*35
$GPGST,135350.00,10.380,4.369,3.197,174.4,4.359,3.211,10.593*5A
$PTNL,PJK,135350.00,101318,,,,,13,06,2.8,,M*1F
$PTNL,PJT,WGS84,NONE*21
$PTNL,VGK,135350.00,101318,00000.000,00000.000,00000.000,0,06,2.8,M*08
$PTNL,VHD,135350.00,101318,0.000,0.000,0.000,0.000,0.000,0.000,13,06,2.8,M*38
$GPGSV,4,1,11,22,25,286,33,31,65,347,48,16,24,222,40,29,35,088,47*73
$GPGSV,4,2,11,3,18,307,39,25,27,045,46,14,82,130,43,26,53,230,46*41
$GPGSV,4,3,11,32,56,142,49*46
$GPGSV,4,4,11,42,42,146,,50,42,146,34*7D
$PTNL,AVR,135350.00,+0.0000,Yaw,+0.0000,Tilt,,,0.000,0,0.0,00*36
$GPZDA,135350.011,13,10,2018,00,00*5F
$GPHDT,,*4F
$GPROT,,V*08
$GPGSA,A,3,25,26,29,31,22,32,,,,,,,2.8,1.4,2.5*31
$GPRMC,135350.00,A,3626.22030454,N,12325.72737606,E,0.308,358.472,131018,999.9000,E,D*09
$GPGLL,3626.22030454,N,12325.72737606,E,135350.00,A,D*6B
$GPGRS,135350.00,1,2.6,-1.9,-0.2,-0.2,2.8,-1.7,,,,,,*4F
$PTNLDG,39.0,12.0,291.0,200,0,4,1,0,,,*33
$PFUGDP,GP,135350.00,3626.22030,N,12325.72738,E,06,6,DN,4.4,3.2,174,10.4*21
eUWLE`aA\~i]@JEmKLsljliT]dW_Lo{x$GPGGA,135351.00,3626.22075571,N,12325.72734312,E,2,09,1.0,9.241,M,9.763,M,10.0,0129*45
$PTNL,GGK,135351.00,101318,3626.22075571,N,12325.72734312,E,5,09,1.9,EHT19.004,M*4C
$GPVTG,12.22,T,,M,0.27,N,0.50,K,D*0B
$GPGST,135351.00,1.739,1.491,1.320,174.9,1.490,1.321,3.070*54
$PTNL,PJK,135351.00,101318,,,,,5,09,1.9,,M*24
$PTNL,PJT,WGS84,NONE*21
$PTNL,VGK,135351.00,101318,00000.000,00000.000,00000.000,0,09,1.9,M*04
$PTNL,VHD,135351.00,101318,0.000,0.000,0.000,0.000,0.000,0.000,5,09,1.9,M*03
$GPGSV,4,1,11,22,25,286,36,31,65,347,48,16,24,222,42,29,35,088,46*75
$GPGSV,4,2,11,3,18,307,40,25,27,045,46,14,82,130,44,26,53,230,45*4B
$GPGSV,4,3,11,32,56,142,48*47
$GPGSV,4,4,11,42,42,146,33,50,42,146,*7A
$PTNL,AVR,135351.00,+0.0000,Yaw,+0.0000,Tilt,,,0.000,0,0.0,00*37
$GPZDA,135351.011,13,10,2018,00,00*5E
$GPHDT,,*4F
$GPROT,,V*08
$GPGSA,A,3,3,14,25,26,29,31,22,32,16,,,,1.9,1.0,1.6*06
$GPRMC,135351.00,A,3626.22075571,N,12325.72734312,E,0.271,12.216,131018,999.9000,E,D*3A
$GPGLL,3626.22075571,N,12325.72734312,E,135351.00,A,D*6E
$GPGRS,135351.00,1,0.8,0.1,0.8,-0.8,-0.5,1.0,1.9,0.0,-1.4,,,*4D
$PTNLDG,37.0,10.0,291.0,200,0,4,0,21,,,*0D
$PFUGDP,GP,135351.00,3626.22076,N,12325.72734,E,09,7,DN,1.5,1.3,175,1.7*15
U~ChWSPHp_we|^xzyLTENsMS~VmoV_^T$GPGGA,135352.00,3626.22103389,N,12325.72730720,E,2,09,1.0,9.430,M,9.763,M,11.0,0129*47
$PTNL,GGK,135352.00,101318,3626.22103389,N,12325.72730720,E,5,09,1.9,EHT19.193,M*40
$GPVTG,5.61,T,,M,0.29,N,0.53,K,D*37
$GPGST,135352.00,1.271,1.491,1.320,174.9,1.490,1.321,3.070*5E
$PTNL,PJK,135352.00,101318,,,,,5,09,1.9,,M*27
$PTNL,PJT,WGS84,NONE*21
$PTNL,VGK,135352.00,101318,00000.000,00000.000,00000.000,0,09,1.9,M*07
$PTNL,VHD,135352.00,101318,0.000,0.000,0.000,0.000,0.000,0.000,5,09,1.9,M*00
$GPGSV,4,1,11,22,25,286,38,31,65,347,47,16,24,222,41,29,35,088,47*76
$GPGSV,4,2,11,3,18,307,39,25,27,045,46,14,82,130,44,26,53,230,45*45
$GPGSV,4,3,11,32,56,142,48*47
$GPGSV,4,4,11,42,42,146,33,50,42,146,*7A
$PTNL,AVR,135352.00,+0.0000,Yaw,+0.0000,Tilt,,,0.000,0,0.0,00*34
$GPZDA,135352.011,13,10,2018,00,00*5D
$GPHDT,,*4F
$GPROT,,V*08
$GPGSA,A,3,3,14,25,26,29,31,22,32,16,,,,1.9,1.0,1.6*06
$GPRMC,135352.00,A,3626.22103389,N,12325.72730720,E,0.288,5.609,131018,999.9000,E,D*03
$GPGLL,3626.22103389,N,12325.72730720,E,135352.00,A,D*6D
$GPGRS,135352.00,1,0.5,0.0,0.6,-0.8,-0.5,0.7,1.7,0.1,-1.2,,,*43
$PTNLDG,38.0,10.0,291.0,200,0,4,0,20,,,*03
$PFUGDP,GP,135352.00,3626.22103,N,12325.72731,E,09,7,DN,1.5,1.3,175,1.3*14
@nT@HzxDGp]`ScOv~ef`OZSpljlAhRphvM$GPGGA,135353.00,3626.22126513,N,12325.72724596,E,2,09,1.0,9.549,M,9.763,M,12.0,0129*42
$PTNL,GGK,135353.00,101318,3626.22126513,N,12325.72724596,E,5,09,1.9,EHT19.312,M*42
$GPVTG,338.78,T,,M,0.37,N,0.68,K,D*35
$GPGST,135353.00,0.983,1.491,1.320,174.9,1.490,1.322,3.070*5B
$PTNL,PJK,135353.00,101318,,,,,5,09,1.9,,M*26
$PTNL,PJT,WGS84,NONE*21
$PTNL,VGK,135353.00,101318,00000.000,00000.000,00000.000,0,09,1.9,M*06
$PTNL,VHD,135353.00,101318,0.000,0.000,0.000,0.000,0.000,0.000,5,09,1.9,M*01
$GPGSV,4,1,11,22,25,286,37,31,65,347,48,16,24,222,40,29,35,088,48*78
$GPGSV,4,2,11,3,19,307,40,25,27,045,46,14,82,130,44,26,53,230,45*4A
$GPGSV,4,3,11,32,56,142,48*47
$GPGSV,4,4,11,42,42,146,32,50,42,146,34*7C
$PTNL,AVR,135353.00,+0.0000,Yaw,+0.0000,Tilt,,,0.000,0,0.0,00*35
$GPZDA,135353.011,13,10,2018,00,00*5C
$GPHDT,,*4F
$GPROT,,V*08
$GPGSA,A,3,3,14,25,26,29,31,22,32,16,,,,1.9,1.0,1.6*06
$GPRMC,135353.00,A,3626.22126513,N,12325.72724596,E,0.369,338.776,131018,999.9000,E,D*00
$GPGLL,3626.22126513,N,12325.72724596,E,135353.00,A,D*64
$GPGRS,135353.00,1,0.3,0.0,0.4,-0.8,-0.5,0.5,1.5,0.1,-1.1,,,*45
$PTNLDG,37.0,11.0,291.0,200,0,4,0,13,,,*0D
$PFUGDP,GP,135353.00,3626.22127,N,12325.72725,E,09,7,DN,1.5,1.3,175,1.0*15
o{qEA|oP@fwO@EKa`@zuJTMOsMS~VmCV$GPGGA,135354.00,3626.22146218,N,12325.72716971,E,2,09,1.0,9.581,M,9.763,M,13.0,0129*4E
$PTNL,GGK,135354.00,101318,3626.22146218,N,12325.72716971,E,5,09,1.9,EHT19.344,M*48
$GPVTG,336.05,T,,M,0.37,N,0.68,K,D*31
$GPGST,135354.00,0.794,1.491,1.320,174.9,1.490,1.322,3.071*55
$PTNL,PJK,135354.00,101318,,,,,5,09,1.9,,M*21
$PTNL,PJT,WGS84,NONE*21
$PTNL,VGK,135354.00,101318,00000.000,00000.000,00000.000,0,09,1.9,M*01
$PTNL,VHD,135354.00,101318,0.000,0.000,0.000,0.000,0.000,0.000,5,09,1.9,M*06
$GPGSV,4,1,11,22,25,286,35,31,65,347,49,16,24,222,39,29,35,088,48*75
$GPGSV,4,2,11,3,19,307,40,25,27,045,46,14,82,130,45,26,53,230,47*49
$GPGSV,4,3,11,32,56,142,49*46
$GPGSV,4,4,11,42,42,146,32,50,42,146,33*7B
$PTNL,AVR,135354.00,+0.0000,Yaw,+0.0000,Tilt,,,0.000,0,0.0,00*32
$GPZDA,135354.011,13,10,2018,00,00*5B
$GPHDT,,*4F
$GPROT,,V*08
$GPGSA,A,3,3,14,25,26,29,31,22,32,16,,,,1.9,1.0,1.6*06
$GPRMC,135354.00,A,3626.22146218,N,12325.72716971,E,0.367,336.054,131018,999.9000,E,D*0E
$GPGLL,3626.22146218,N,12325.72716971,E,135354.00,A,D*6D
$GPGRS,135354.00,1,0.1,-0.1,0.3,-0.8,-0.4,0.4,1.4,0.2,-1.0,,,*68
$PTNLDG,38.0,10.0,291.0,200,0,4,0,8,,,*39
$PFUGDP,GP,135354.00,3626.22146,N,12325.72717,E,09,7,DN,1.5,1.3,175,0.8*1D
o\_@JVD|WFXz_F~waC^Su\`{hsljliTm$GPGGA,135355.00,3626.22161237,N,12325.72713333,E,2,09,1.0,9.586,M,9.763,M,4.0,0129*7F
$PTNL,GGK,135355.00,101318,3626.22161237,N,12325.72713333,E,5,09,1.9,EHT19.349,M*45
$GPVTG,358.42,T,,M,0.26,N,0.49,K,D*39
$GPGST,135355.00,0.697,1.493,1.371,171.4,1.490,1.374,3.139*56
$PTNL,PJK,135355.00,101318,,,,,5,09,1.9,,M*20
$PTNL,PJT,WGS84,NONE*21
$PTNL,VGK,135355.00,101318,00000.000,00000.000,00000.000,0,09,1.9,M*00
$PTNL,VHD,135355.00,101318,0.000,0.000,0.000,0.000,0.000,0.000,5,09,1.9,M*07
$GPGSV,4,1,11,22,25,286,32,31,65,347,49,16,24,222,39,29,35,088,48*72
$GPGSV,4,2,11,3,19,307,40,25,27,045,46,14,82,130,44,26,53,230,46*49
$GPGSV,4,3,11,32,56,142,48*47
$GPGSV,4,4,11,42,42,146,33,50,42,146,33*7A
$PTNL,AVR,135355.00,+0.0000,Yaw,+0.0000,Tilt,,,0.000,0,0.0,00*33
$GPZDA,135355.011,13,10,2018,00,00*5A
$GPHDT,,*4F
$GPROT,,V*08
$GPGSA,A,3,3,14,25,26,29,31,22,32,16,,,,1.9,1.0,1.6*06
$GPRMC,135355.00,A,3626.22161237,N,12325.72713333,E,0.264,358.418,131018,999.9000,E,D*08
$GPGLL,3626.22161237,N,12325.72713333,E,135355.00,A,D*6D
$GPGRS,135355.00,1,0.1,-0.1,0.3,-0.8,-0.4,0.3,1.3,0.2,-0.9,,,*61
$PTNLDG,39.0,11.0,291.0,200,0,4,0,8,,,*39
$PFUGDP,GP,135355.00,3626.22161,N,12325.72713,E,09,6,DN,1.5,1.4,171,0.7*10
sWoOo{x}B|WD|nwO`HZQb@_ETTozpXrlAi$GPGGA,135356.00,3626.22173826,N,12325.72713756,E,2,09,1.0,9.650,M,9.763,M,5.0,0129*7B
$PTNL,GGK,135356.00,101318,3626.22173826,N,12325.72713756,E,5,09,1.9,EHT19.414,M*47
$GPVTG,16.28,T,,M,0.29,N,0.53,K,D*08
$GPGST,135356.00,0.638,1.491,1.320,174.9,1.490,1.321,3.070*52
$PTNL,PJK,135356.00,101318,,,,,5,09,1.9,,M*23
$PTNL,PJT,WGS84,NONE*21
$PTNL,VGK,135356.00,101318,00000.000,00000.000,00000.000,0,09,1.9,M*03
$PTNL,VHD,135356.00,101318,0.000,0.000,0.000,0.000,0.000,0.000,5,09,1.9,M*04
$GPGSV,4,1,11,22,25,286,36,31,65,347,49,16,24,222,36,29,35,088,48*79
$GPGSV,4,2,11,3,19,307,40,25,27,045,46,14,82,130,43,26,53,230,45*4D
$GPGSV,4,3,11,32,56,142,48*47
$GPGSV,4,4,11,42,42,146,33,50,42,146,36*7F
$PTNL,AVR,135356.00,+0.0000,Yaw,+0.0000,Tilt,,,0.000,0,0.0,00*30
$GPZDA,135356.011,13,10,2018,00,00*59
$GPHDT,,*4F
$GPROT,,V*08
$GPGSA,A,3,3,14,25,26,29,31,22,32,16,,,,1.9,1.0,1.6*06
$GPRMC,135356.00,A,3626.22173826,N,12325.72713756,E,0.288,16.284,131018,999.9000,E,D*3D
$GPGLL,3626.22173826,N,12325.72713756,E,135356.00,A,D*60
$GPGRS,135356.00,1,0.0,-0.1,0.2,-0.8,-0.4,0.2,1.2,0.3,-0.8,,,*62
$PTNLDG,36.0,10.0,291.0,200,0,4,0,8,,,*37
$PFUGDP,GP,135356.00,3626.22174,N,12325.72714,E,09,7,DN,1.5,1.3,175,0.6*13
rCi`\L@iP\MWzx_N~s~j]@OecgK}o\j~$GPGGA,135357.00,3626.22185275,N,12325.72714731,E,2,09,1.0,9.753,M,9.763,M,6.0,0129*78
$PTNL,GGK,135357.00,101318,3626.22185275,N,12325.72714731,E,5,09,1.9,EHT19.516,M*46
$GPVTG,11.90,T,,M,0.30,N,0.56,K,D*01
$GPGST,135357.00,0.607,1.491,1.320,174.9,1.490,1.321,3.071*5E
$PTNL,PJK,135357.00,101318,,,,,5,09,1.9,,M*22
$PTNL,PJT,WGS84,NONE*21
$PTNL,VGK,135357.00,101318,00000.000,00000.000,00000.000,0,09,1.9,M*02
$PTNL,VHD,135357.00,101318,0.000,0.000,0.000,0.000,0.000,0.000,5,09,1.9,M*05
$GPGSV,4,1,11,22,25,286,37,31,65,347,48,16,24,222,42,29,35,088,48*7A
$GPGSV,4,2,11,3,19,307,41,25,27,045,47,14,82,130,44,26,53,230,45*4A
$GPGSV,4,3,11,32,56,142,48*47
$GPGSV,4,4,11,42,42,146,35,50,42,146,34*7B
$PTNL,AVR,135357.00,+0.0000,Yaw,+0.0000,Tilt,,,0.000,0,0.0,00*31
$GPZDA,135357.011,13,10,2018,00,00*58
$GPHDT,,*4F
$GPROT,,V*08
$GPGSA,A,3,3,14,25,26,29,31,22,32,16,,,,1.9,1.0,1.6*06
$GPRMC,135357.00,A,3626.22185275,N,12325.72714731,E,0.303,11.897,131018,999.9000,E,D*32
$GPGLL,3626.22185275,N,12325.72714731,E,135357.00,A,D*62
$GPGRS,135357.00,1,-0.1,-0.1,0.2,-0.7,-0.4,0.2,1.2,0.3,-0.8,,,*40
$PTNLDG,38.0,11.0,291.0,200,0,4,0,8,,,*38
$PFUGDP,GP,135357.00,3626.22185,N,12325.72715,E,09,7,DN,1.5,1.3,175,0.6*1D
iTm^wUHGOJNtn^PIGp_M{Ca@{yDT}sO$GPGGA,135358.00,3626.22196793,N,12325.72713605,E,2,09,1.0,9.853,M,9.763,M,7.0,0129*77
$PTNL,GGK,135358.00,101318,3626.22196793,N,12325.72713605,E,5,09,1.9,EHT19.616,M*44
$GPVTG,350.34,T,,M,0.33,N,0.62,K,D*3D
$GPGST,135358.00,0.581,1.491,1.320,174.9,1.490,1.322,3.071*5F
$PTNL,PJK,135358.00,101318,,,,,5,09,1.9,,M*2D
$PTNL,PJT,WGS84,NONE*21
$PTNL,VGK,135358.00,101318,00000.000,00000.000,00000.000,0,09,1.9,M*0D
$PTNL,VHD,135358.00,101318,0.000,0.000,0.000,0.000,0.000,0.000,5,09,1.9,M*0A
$GPGSV,4,1,11,22,25,286,36,31,65,347,47,16,24,222,39,29,35,088,48*78
$GPGSV,4,2,11,3,19,307,39,25,27,045,46,14,82,130,44,26,53,230,45*44
$GPGSV,4,3,11,32,56,142,48*47
$GPGSV,4,4,11,42,42,146,34,50,42,146,33*7D
$PTNL,AVR,135358.00,+0.0000,Yaw,+0.0000,Tilt,,,0.000,0,0.0,00*3E
$GPZDA,135358.011,13,10,2018,00,00*57
$GPHDT,,*4F
$GPROT,,V*08
$GPGSA,A,3,3,14,25,26,29,31,22,32,16,,,,1.9,1.0,1.6*06
$GPRMC,135358.00,A,3626.22196793,N,12325.72713605,E,0.335,350.340,131018,999.9000,E,D*01
$GPGLL,3626.22196793,N,12325.72713605,E,135358.00,A,D*63
$GPGRS,135358.00,1,-0.1,-0.1,0.2,-0.7,-0.4,0.1,1.2,0.3,-0.8,,,*4C
$PTNLDG,37.0,5.0,291.0,200,0,4,0,8,,,*02
$PFUGDP,GP,135358.00,3626.22197,N,12325.72714,E,09,7,DN,1.5,1.3,175,0.6*10
rliUm\Vo\RpknzKzxly[\`N`Ov~Mz@PU\L$GPGGA,135359.00,3626.22208145,N,12325.72708358,E,2,09,1.0,9.847,M,9.763,M,7.0,0129*7D
$PTNL,GGK,135359.00,101318,3626.22208145,N,12325.72708358,E,5,09,1.9,EHT19.610,M*4D
$GPVTG,327.48,T,,M,0.42,N,0.78,K,D*3B
$GPGST,135359.00,0.566,1.493,1.368,171.7,1.490,1.371,3.135*55
$PTNL,PJK,135359.00,101318,,,,,5,09,1.9,,M*2C
$PTNL,PJT,WGS84,NONE*21
$PTNL,VGK,135359.00,101318,00000.000,00000.000,00000.000,0,09,1.9,M*0C
$PTNL,VHD,135359.00,101318,0.000,0.000,0.000,0.000,0.000,0.000,5,09,1.9,M*0B
$GPGSV,4,1,11,22,25,286,32,31,65,347,48,16,24,222,41,29,35,088,47*73
$GPGSV,4,2,11,3,19,307,41,25,27,045,46,14,82,131,44,26,53,230,46*49
$GPGSV,4,3,11,32,56,142,48*47
$GPGSV,4,4,11,42,42,146,34,50,42,146,33*7D
$PTNL,AVR,135359.00,+0.0000,Yaw,+0.0000,Tilt,,,0.000,0,0.0,00*3F
$GPZDA,135359.011,13,10,2018,00,00*56
$GPHDT,,*4F
$GPROT,,V*08
$GPGSA,A,3,3,14,25,26,29,31,22,32,16,,,,1.9,1.0,1.6*06
$GPRMC,135359.00,A,3626.22208145,N,12325.72708358,E,0.419,327.482,131018,999.9000,E,D*0E
$GPGLL,3626.22208145,N,12325.72708358,E,135359.00,A,D*6C
$GPGRS,135359.00,1,-0.1,-0.1,0.1,-0.8,-0.4,0.1,1.2,0.3,-0.7,,,*4E
$PTNLDG,37.0,4.0,291.0,200,0,3,0,8,,,*04
$PFUGDP,GP,135359.00,3626.22208,N,12325.72708,E,09,6,DN,1.5,1.4,172,0.6*18
SVSVkRShxLo{z]}CHhs_wO@MF\\p{sKT$GPGGA,135400.00,3626.22218958,N,12325.72702992,E,2,09,1.0,9.818,M,9.763,M,7.0,0129*7F
$PTNL,GGK,135400.00,101318,3626.22218958,N,12325.72702992,E,5,09,1.9,EHT19.581,M*4E
$GPVTG,340.73,T,,M,0.35,N,0.64,K,D*3F
$GPGST,135400.00,0.579,1.491,1.320,174.9,1.490,1.321,3.071*51
$PTNL,PJK,135400.00,101318,,,,,5,09,1.9,,M*27
$PTNL,PJT,WGS84,NONE*21
$PTNL,VGK,135400.00,101318,00000.000,00000.000,00000.000,0,09,1.9,M*07
$PTNL,VHD,135400.00,101318,0.000,0.000,0.000,0.000,0.000,0.000,5,09,1.9,M*00
$GPGSV,4,1,11,22,25,286,35,31,65,347,49,16,24,222,36,29,35,088,47*75
$GPGSV,4,2,11,3,19,307,41,25,27,045,45,14,82,131,44,26,53,230,46*4A
$GPGSV,4,3,11,32,56,142,49*46
$GPGSV,4,4,11,42,42,146,33,50,42,146,33*7A
$PTNL,AVR,135400.00,+0.0000,Yaw,+0.0000,Tilt,,,0.000,0,0.0,00*34
$GPZDA,135400.011,13,10,2018,00,00*5D
$GPHDT,,*4F
$GPROT,,V*08
$GPGSA,A,3,3,14,25,26,29,31,22,32,16,,,,1.9,1.0,1.6*06
$GPRMC,135400.00,A,3626.22218958,N,12325.72702992,E,0.346,340.735,131018,999.9000,E,D*05
$GPGLL,3626.22218958,N,12325.72702992,E,135400.00,A,D*64
$GPGRS,135400.00,1,-0.1,-0.1,0.1,-0.8,-0.4,0.1,1.2,0.4,-0.8,,,*4D
$PTNLDG,37.0,7.0,291.0,200,0,3,0,8,,,*07
$PFUGDP,GP,135400.00,3626.22219,N,12325.72703,E,09,7,DN,1.5,1.3,175,0.6*19
uqLrlAiR_ip^_@JUCHhyGD`E_i]|a@Dv|$GPGGA,135401.00,3626.22229120,N,12325.72703851,E,2,09,1.0,9.855,M,9.763,M,4.0,0129*7E
$PTNL,GGK,135401.00,101318,3626.22229120,N,12325.72703851,E,5,09,1.9,EHT19.618,M*46
$GPVTG,14.51,T,,M,0.33,N,0.61,K,D*0E
$GPGST,135401.00,0.558,1.492,1.353,172.9,1.490,1.355,3.115*52
$PTNL,PJK,135401.00,101318,,,,,5,09,1.9,,M*26
$PTNL,PJT,WGS84,NONE*21
$PTNL,VGK,135401.00,101318,00000.000,00000.000,00000.000,0,09,1.9,M*06
$PTNL,VHD,135401.00,101318,0.000,0.000,0.000,0.000,0.000,0.000,5,09,1.9,M*01
$GPGSV,4,1,11,22,25,286,34,31,65,347,49,16,24,222,38,29,35,088,47*7A
$GPGSV,4,2,11,3,19,307,40,25,27,045,46,14,82,131,44,26,53,230,45*4B
$GPGSV,4,3,11,32,56,142,49*46
$GPGSV,4,4,11,42,42,146,33,50,42,146,33*7A
$PTNL,AVR,135401.00,+0.0000,Yaw,+0.0000,Tilt,,,0.000,0,0.0,00*35
$GPZDA,135401.011,13,10,2018,00,00*5C
$GPHDT,,*4F
$GPROT,,V*08
$GPGSA,A,3,3,14,25,26,29,31,22,32,16,,,,1.9,1.0,1.6*06
$GPRMC,135401.00,A,3626.22229120,N,12325.72703851,E,0.332,14.507,131018,999.9000,E,D*3C
$GPGLL,3626.22229120,N,12325.72703851,E,135401.00,A,D*6F
$GPGRS,135401.00,1,-0.1,-0.1,0.1,-0.8,-0.4,0.1,1.2,0.4,-0.7,,,*43
$PTNLDG,36.0,8.0,291.0,200,0,3,0,8,,,*09
$PFUGDP,GP,135401.00,3626.22229,N,12325.72704,E,09,6,DN,1.5,1.4,173,0.6*1C
Oz@sljliTm@WwqPDGB}Ch[GtwO`ZXAa@GF$GPGGA,135402.00,3626.22238331,N,12325.72707483,E,2,09,1.0,9.895,M,9.763,M,5.0,0129*75
$PTNL,GGK,135402.00,101318,3626.22238331,N,12325.72707483,E,5,09,1.9,EHT19.658,M*44
$GPVTG,19.28,T,,M,0.30,N,0.55,K,D*09
$GPGST,135402.00,0.550,1.492,1.347,173.3,1.490,1.349,3.107*59
$PTNL,PJK,135402.00,101318,,,,,5,09,1.9,,M*25
$PTNL,PJT,WGS84,NONE*21
$PTNL,VGK,135402.00,101318,00000.000,00000.000,00000.000,0,09,1.9,M*05
$PTNL,VHD,135402.00,101318,0.000,0.000,0.000,0.000,0.000,0.000,5,09,1.9,M*02
$GPGSV,4,1,11,22,25,286,34,31,65,347,49,16,24,222,37,29,35,088,47*75
$GPGSV,4,2,11,3,19,307,41,25,27,045,45,14,82,131,44,26,53,230,46*4A
$GPGSV,4,3,11,32,56,142,48*47
$GPGSV,4,4,11,42,42,146,35,50,42,146,33*7C
$PTNL,AVR,135402.00,+0.0000,Yaw,+0.0000,Tilt,,,0.000,0,0.0,00*36
$GPZDA,135402.011,13,10,2018,00,00*5F
$GPHDT,,*4F
$GPROT,,V*08
$GPGSA,A,3,3,14,25,26,29,31,22,32,16,,,,1.9,1.0,1.6*06
$GPRMC,135402.00,A,3626.22238331,N,12325.72707483,E,0.299,19.275,131018,999.9000,E,D*35
$GPGLL,3626.22238331,N,12325.72707483,E,135402.00,A,D*69
$GPGRS,135402.00,1,-0.1,-0.1,0.1,-0.7,-0.4,0.1,1.2,0.4,-0.7,,,*4F
$PTNLDG,37.0,11.0,291.0,200,0,4,0,8,,,*37
$PFUGDP,GP,135402.00,3626.22238,N,12325.72707,E,09,6,DN,1.5,1.3,173,0.6*1B
F}kJLsMSVjrti@]^@oPDhUWtG`q@YBVb$GPGGA,135403.00,3626.22246608,N,12325.72707720,E,2,09,1.0,9.893,M,9.763,M,6.0,0129*7D
$PTNL,GGK,135403.00,101318,3626.22246608,N,12325.72707720,E,5,09,1.9,EHT19.656,M*47
$GPVTG,351.52,T,,M,0.27,N,0.50,K,D*38
$GPGST,135403.00,0.549,1.491,1.320,174.9,1.490,1.321,3.071*51
$PTNL,PJK,135403.00,101318,,,,,5,09,1.9,,M*24
$PTNL,PJT,WGS84,NONE*21
$PTNL,VGK,135403.00,101318,00000.000,00000.000,00000.000,0,09,1.9,M*04
$PTNL,VHD,135403.00,101318,0.000,0.000,0.000,0.000,0.000,0.000,5,09,1.9,M*03
$GPGSV,4,1,11,22,25,286,37,31,65,347,48,16,24,222,39,29,35,088,48*76
$GPGSV,4,2,11,3,19,307,40,25,27,045,45,14,82,131,44,26,53,230,45*48
$GPGSV,4,3,11,32,56,142,47*48
$GPGSV,4,4,11,42,42,146,34,50,42,146,33*7D
$PTNL,AVR,135403.00,+0.0000,Yaw,+0.0000,Tilt,,,0.000,0,0.0,00*37
$GPZDA,135403.011,13,10,2018,00,00*5E
$GPHDT,,*4F
$GPROT,,V*08
$GPGSA,A,3,3,14,25,26,29,31,22,32,16,,,,1.9,1.0,1.6*06
$GPRMC,135403.00,A,3626.22246608,N,12325.72707720,E,0.273,351.521,131018,999.9000,E,D*05
$GPGLL,3626.22246608,N,12325.72707720,E,135403.00,A,D*64
$GPGRS,135403.00,1,-0.1,-0.1,0.1,-0.7,-0.4,0.1,1.2,0.4,-0.7,,,*4E
$PTNLDG,37.0,11.0,291.0,200,0,4,0,8,,,*37
$PFUGDP,GP,135403.00,3626.22247,N,12325.72708,E,09,7,DN,1.5,1.3,175,0.5*19
C}KPdMSUSVkrDhhrPDIJ|CPawxHp\ya$GPGGA,135404.00,3626.22255444,N,12325.72704877,E,2,09,1.0,9.880,M,9.763,M,7.0,0129*7F
$PTNL,GGK,135404.00,101318,3626.22255444,N,12325.72704877,E,5,09,1.9,EHT19.643,M*42
$GPVTG,338.50,T,,M,0.34,N,0.62,K,D*36
$GPGST,135404.00,0.526,1.492,1.354,172.9,1.490,1.356,3.117*58
$PTNL,PJK,135404.00,101318,,,,,5,09,1.9,,M*23
$PTNL,PJT,WGS84,NONE*21
$PTNL,VGK,135404.00,101318,00000.000,00000.000,00000.000,0,09,1.9,M*03
$PTNL,VHD,135404.00,101318,0.000,0.000,0.000,0.000,0.000,0.000,5,09,1.9,M*04
$GPGSV,4,1,11,22,25,286,33,31,65,347,48,16,24,222,39,29,35,088,48*72
$GPGSV,4,2,11,3,19,307,39,25,27,045,46,14,82,131,43,26,53,230,45*42
$GPGSV,4,3,11,32,56,142,47*48
$GPGSV,4,4,11,42,42,146,34,50,42,146,33*7D
$PTNL,AVR,135404.00,+0.0000,Yaw,+0.0000,Tilt,,,0.000,0,0.0,00*30
$GPZDA,135404.011,13,10,2018,00,00*59
$GPHDT,,*4F
$GPROT,,V*08
$GPGSA,A,3,3,14,25,26,29,31,22,32,16,,,,1.9,1.0,1.6*06
$GPRMC,135404.00,A,3626.22255444,N,12325.72704877,E,0.336,338.505,131018,999.9000,E,D*0D
$GPGLL,3626.22255444,N,12325.72704877,E,135404.00,A,D*65
$GPGRS,135404.00,1,-0.1,-0.1,0.1,-0.7,-0.4,0.1,1.2,0.4,-0.6,,,*48
$PTNLDG,37.0,11.0,291.0,200,0,4,0,12,,,*0C
$PFUGDP,GP,135404.00,3626.22255,N,12325.72705,E,09,6,DN,1.5,1.4,173,0.5*10
a@GTskZOsMS~VMyVG^T@nT@VzxdxOBqxc$GPGGA,135405.00,3626.22264109,N,12325.72701471,E,2,09,1.0,9.894,M,9.763,M,7.0,0129*7A
$PTNL,GGK,135405.00,101318,3626.22264109,N,12325.72701471,E,5,09,1.9,EHT19.657,M*47
$GPVTG,336.56,T,,M,0.32,N,0.59,K,D*30
$GPGST,135405.00,0.523,1.492,1.361,172.4,1.490,1.363,3.126*53
$PTNL,PJK,135405.00,101318,,,,,5,09,1.9,,M*22
$PTNL,PJT,WGS84,NONE*21
$PTNL,VGK,135405.00,101318,00000.000,00000.000,00000.000,0,09,1.9,M*02
$PTNL,VHD,135405.00,101318,0.000,0.000,0.000,0.000,0.000,0.000,5,09,1.9,M*05
$GPGSV,4,1,11,22,25,286,33,31,65,347,49,16,24,222,39,29,35,088,47*7C
$GPGSV,4,2,11,3,19,307,40,25,27,045,46,14,82,131,44,26,53,230,45*4B
$GPGSV,4,3,11,32,55,142,48*44
$GPGSV,4,4,11,42,42,146,34,50,42,146,34*7A
$PTNL,AVR,135405.00,+0.0000,Yaw,+0.0000,Tilt,,,0.000,0,0.0,00*31
$GPZDA,135405.011,13,10,2018,00,00*58
$GPHDT,,*4F
$GPROT,,V*08
$GPGSA,A,3,3,14,25,26,29,31,22,32,16,,,,1.9,1.0,1.6*06
$GPRMC,135405.00,A,3626.22264109,N,12325.72701471,E,0.317,336.564,131018,999.9000,E,D*07
$GPGLL,3626.22264109,N,12325.72701471,E,135405.00,A,D*65
$GPGRS,135405.00,1,-0.1,-0.1,0.1,-0.7,-0.4,0.1,1.2,0.4,-0.6,,,*49
$PTNLDG,38.0,9.0,291.0,200,0,4,0,12,,,*3A
$PFUGDP,GP,135405.00,3626.22264,N,12325.72701,E,09,6,DN,1.5,1.4,172,0.5*16
Ov~fFgok{sljliTMYWNo{x}B|WTTowO`$GPGGA,135406.00,3626.22272584,N,12325.72700341,E,2,09,1.0,9.937,M,9.763,M,7.0,0129*72
$PTNL,GGK,135406.00,101318,3626.22272584,N,12325.72700341,E,5,09,1.9,EHT19.700,M*44
$GPVTG,358.02,T,,M,0.27,N,0.50,K,D*34
$GPGST,135406.00,0.526,1.493,1.363,172.1,1.490,1.366,3.129*59
$PTNL,PJK,135406.00,101318,,,,,5,09,1.9,,M*21
$PTNL,PJT,WGS84,NONE*21
$PTNL,VGK,135406.00,101318,00000.000,00000.000,00000.000,0,09,1.9,M*01
$PTNL,VHD,135406.00,101318,0.000,0.000,0.000,0.000,0.000,0.000,5,09,1.9,M*06
$GPGSV,4,1,11,22,25,286,33,31,65,347,48,16,24,222,37,29,35,088,48*7C
$GPGSV,4,2,11,3,19,307,40,25,27,045,47,14,82,131,44,26,53,230,46*49
$GPGSV,4,3,11,32,55,142,47*4B
$GPGSV,4,4,11,42,42,146,32,50,42,146,31*79
$PTNL,AVR,135406.00,+0.0000,Yaw,+0.0000,Tilt,,,0.000,0,0.0,00*32
$GPZDA,135406.011,13,10,2018,00,00*5B
$GPHDT,,*4F
$GPROT,,V*08
$GPGSA,A,3,3,14,25,26,29,31,22,32,16,,,,1.9,1.0,1.6*06
$GPRMC,135406.00,A,3626.22272584,N,12325.72700341,E,0.273,358.017,131018,999.9000,E,D*0D
$GPGLL,3626.22272584,N,12325.72700341,E,135406.00,A,D*65
$GPGRS,135406.00,1,0.0,-0.1,0.1,-0.7,-0.4,0.1,1.2,0.4,-0.6,,,*66
$PTNLDG,37.0,10.0,291.0,200,0,4,0,12,,,*0D
$PFUGDP,GP,135406.00,3626.22273,N,12325.72700,E,09,6,DN,1.5,1.4,172,0.5*12
HZCa@GEFqkbMsMSVjriip]_@JwzYhy_E`$GPGGA,135407.00,3626.22280537,N,12325.72701522,E,2,09,1.0,9.978,M,9.763,M,4.0,0129*7C
$PTNL,GGK,135407.00,101318,3626.22280537,N,12325.72701522,E,5,09,1.9,EHT19.741,M*47
$GPVTG,15.37,T,,M,0.30,N,0.55,K,D*0B
$GPGST,135407.00,0.531,1.492,1.339,173.9,1.490,1.341,3.097*58
$PTNL,PJK,135407.00,101318,,,,,5,09,1.9,,M*20
$PTNL,PJT,WGS84,NONE*21
$PTNL,VGK,135407.00,101318,00000.000,00000.000,00000.000,0,09,1.9,M*00
$PTNL,VHD,135407.00,101318,0.000,0.000,0.000,0.000,0.000,0.000,5,09,1.9,M*07
$GPGSV,4,1,11,22,25,286,34,31,65,347,48,16,24,222,40,29,35,088,46*75
$GPGSV,4,2,11,3,19,307,41,25,27,045,46,14,82,131,44,26,53,230,46*49
$GPGSV,4,3,11,32,55,142,47*4B
$GPGSV,4,4,11,42,42,146,33,50,42,146,31*78
$PTNL,AVR,135407.00,+0.0000,Yaw,+0.0000,Tilt,,,0.000,0,0.0,00*33
$GPZDA,135407.011,13,10,2018,00,00*5A
$GPHDT,,*4F
$GPROT,,V*08
$GPGSA,A,3,3,14,25,26,29,31,22,32,16,,,,1.9,1.0,1.6*06
$GPRMC,135407.00,A,3626.22280537,N,12325.72701522,E,0.296,15.368,131018,999.9000,E,D*31
$GPGLL,3626.22280537,N,12325.72701522,E,135407.00,A,D*63
$GPGRS,135407.00,1,0.0,-0.1,0.1,-0.7,-0.4,0.1,1.2,0.4,-0.6,,,*67
$PTNLDG,36.0,11.0,291.0,200,0,4,0,12,,,*0D
$PFUGDP,GP,135407.00,3626.22281,N,12325.72702,E,09,6,DN,1.5,1.3,174,0.5*1D
E^]`C^SuRp{PrljliTMfWgMo{qEA|OwPX$GPGGA,135408.00,3626.22288353,N,12325.72703479,E,2,09,1.0,9.999,M,9.763,M,5.0,0129*7C
$PTNL,GGK,135408.00,101318,3626.22288353,N,12325.72703479,E,5,09,1.9,EHT19.762,M*48
$GPVTG,5.01,T,,M,0.28,N,0.52,K,D*31
$GPGST,135408.00,0.531,1.492,1.348,173.3,1.490,1.350,3.109*5D
$PTNL,PJK,135408.00,101318,,,,,5,09,1.9,,M*2F
$PTNL,PJT,WGS84,NONE*21
$PTNL,VGK,135408.00,101318,00000.000,00000.000,00000.000,0,09,1.9,M*0F
$PTNL,VHD,135408.00,101318,0.000,0.000,0.000,0.000,0.000,0.000,5,09,1.9,M*08
$GPGSV,4,1,11,22,25,286,34,31,65,347,48,16,24,222,40,29,35,088,47*74
$GPGSV,4,2,11,3,19,307,41,25,27,045,47,14,82,131,43,26,53,230,45*4C
$GPGSV,4,3,11,32,55,142,47*4B
$GPGSV,4,4,11,42,42,146,34,50,42,146,33*7D
$PTNL,AVR,135408.00,+0.0000,Yaw,+0.0000,Tilt,,,0.000,0,0.0,00*3C
$GPZDA,135408.011,13,10,2018,00,00*55
$GPHDT,,*4F
$GPROT,,V*08
$GPGSA,A,3,3,14,25,26,29,31,22,32,16,,,,1.9,1.0,1.6*06
$GPRMC,135408.00,A,3626.22288353,N,12325.72703479,E,0.280,5.015,131018,999.9000,E,D*00
$GPGLL,3626.22288353,N,12325.72703479,E,135408.00,A,D*6D
$GPGRS,135408.00,1,0.0,-0.1,0.1,-0.7,-0.4,0.0,1.2,0.4,-0.6,,,*69
$PTNLDG,36.0,9.0,291.0,200,0,4,0,8,,,*0F
$PFUGDP,GP,135408.00,3626.22288,N,12325.72703,E,09,6,DN,1.5,1.3,173,0.5*1D
Hpzt^_@EJskBNsMS~VUlVOcaPtq}UW$GPGGA,135409.00,3626.22297399,N,12325.72701722,E,2,09,1.0,10.004,M,9.763,M,6.0,0129*4C
$PTNL,GGK,135409.00,101318,3626.22297399,N,12325.72701722,E,5,09,1.9,EHT19.767,M*4B
$GPVTG,344.59,T,,M,0.34,N,0.63,K,D*35
$GPGST,135409.00,0.527,1.492,1.341,173.8,1.490,1.343,3.100*52
$PTNL,PJK,135409.00,101318,,,,,5,09,1.9,,M*2E
$PTNL,PJT,WGS84,NONE*21
$PTNL,VGK,135409.00,101318,00000.000,00000.000,00000.000,0,09,1.9,M*0E
$PTNL,VHD,135409.00,101318,0.000,0.000,0.000,0.000,0.000,0.000,5,09,1.9,M*09
$GPGSV,4,1,11,22,25,286,34,31,65,347,48,16,24,222,40,29,35,088,47*74
$GPGSV,4,2,11,3,19,307,40,25,27,045,46,14,82,131,43,26,53,230,46*4F
$GPGSV,4,3,11,32,55,142,48*44
$GPGSV,4,4,11,42,42,146,34,50,42,146,33*7D
$PTNL,AVR,135409.00,+0.0000,Yaw,+0.0000,Tilt,,,0.000,0,0.0,00*3D
$GPZDA,135409.011,13,10,2018,00,00*54
$GPHDT,,*4F
$GPROT,,V*08
$GPGSA,A,3,3,14,25,26,29,31,22,32,16,,,,1.9,1.0,1.6*06
$GPRMC,135409.00,A,3626.22297399,N,12325.72701722,E,0.343,344.586,131018,999.9000,E,D*01
$GPGLL,3626.22297399,N,12325.72701722,E,135409.00,A,D*6B
$GPGRS,135409.00,1,0.0,-0.1,0.1,-0.7,-0.4,0.0,1.2,0.4,-0.6,,,*68
$PTNLDG,36.0,10.0,291.0,200,0,4,0,8,,,*37
$PFUGDP,GP,135409.00,3626.22297,N,12325.72702,E,09,6,DN,1.5,1.3,174,0.5*14
dF`Q_{BVbC}~g~lLSUSVkrshHLo{xU~C$GPGGA,135410.00,3626.22307699,N,12325.72697544,E,2,09,1.0,10.002,M,9.763,M,7.0,0129*42
$PTNL,GGK,135410.00,101318,3626.22307699,N,12325.72697544,E,5,09,1.9,EHT19.765,M*40
$GPVTG,338.40,T,,M,0.38,N,0.71,K,D*39
$GPGST,135410.00,0.523,1.491,1.320,174.9,1.490,1.321,3.072*5C
$PTNL,PJK,135410.00,101318,,,,,5,09,1.9,,M*26
$PTNL,PJT,WGS84,NONE*21
$PTNL,VGK,135410.00,101318,00000.000,00000.000,00000.000,0,09,1.9,M*06
$PTNL,VHD,135410.00,101318,0.000,0.000,0.000,0.000,0.000,0.000,5,09,1.9,M*01
$GPGSV,4,1,11,22,25,286,36,31,65,347,48,16,24,222,40,29,35,088,47*76
$GPGSV,4,2,11,3,19,307,41,25,27,045,47,14,82,131,44,26,53,230,46*48
$GPGSV,4,3,11,32,55,142,48*44
$GPGSV,4,4,11,42,42,146,35,50,42,146,33*7C
$PTNL,AVR,135410.00,+0.0000,Yaw,+0.0000,Tilt,,,0.000,0,0.0,00*35
$GPZDA,135410.011,13,10,2018,00,00*5C
$GPHDT,,*4F
$GPROT,,V*08
$GPGSA,A,3,3,14,25,26,29,31,22,32,16,,,,1.9,1.0,1.6*06
$GPRMC,135410.00,A,3626.22307699,N,12325.72697544,E,0.385,338.397,131018,999.9000,E,D*0F
$GPGLL,3626.22307699,N,12325.72697544,E,135410.00,A,D*62
$GPGRS,135410.00,1,-0.1,-0.1,0.1,-0.7,-0.4,0.0,1.2,0.4,-0.6,,,*4C
$PTNLDG,37.0,9.0,291.0,200,0,4,0,8,,,*0E
$PFUGDP,GP,135410.00,3626.22308,N,12325.72698,E,09,7,DN,1.5,1.3,175,0.5*19
hkClwO``fl]`ykKTMrLrliUuOVWbkQIF$GPGGA,135411.00,3626.22316890,N,12325.72694652,E,2,09,1.0,10.011,M,9.763,M,7.0,0129*41
$PTNL,GGK,135411.00,101318,3626.22316890,N,12325.72694652,E,5,09,1.9,EHT19.774,M*41
$GPVTG,346.79,T,,M,0.33,N,0.61,K,D*30
$GPGST,135411.00,0.513,1.491,1.319,175.0,1.490,1.321,3.071*5F
$PTNL,PJK,135411.00,101318,,,,,5,09,1.9,,M*27
$PTNL,PJT,WGS84,NONE*21
$PTNL,VGK,135411.00,101318,00000.000,00000.000,00000.000,0,09,1.9,M*07
$PTNL,VHD,135411.00,101318,0.000,0.000,0.000,0.000,0.000,0.000,5,09,1.9,M*00
$GPGSV,4,1,11,22,25,286,35,31,65,347,48,16,24,222,40,29,35,088,47*75
$GPGSV,4,2,11,3,19,307,41,25,27,045,47,14,82,131,44,26,53,230,46*48
$GPGSV,4,3,11,32,55,142,47*4B
$GPGSV,4,4,11,42,42,146,34,50,42,146,32*7C
$PTNL,AVR,135411.00,+0.0000,Yaw,+0.0000,Tilt,,,0.000,0,0.0,00*34
$GPZDA,135411.011,13,10,2018,00,00*5D
$GPHDT,,*4F
$GPROT,,V*08
$GPGSA,A,3,3,14,25,26,29,31,22,32,16,,,,1.9,1.0,1.6*06
$GPRMC,135411.00,A,3626.22316890,N,12325.72694652,E,0.327,346.789,131018,999.9000,E,D*04
$GPGLL,3626.22316890,N,12325.72694652,E,135411.00,A,D*63
$GPGRS,135411.00,1,0.0,-0.1,0.1,-0.7,-0.3,0.1,1.2,0.4,-0.6,,,*67
$PTNLDG,36.0,8.0,291.0,200,0,4,0,8,,,*0E
$PFUGDP,GP,135411.00,3626.22317,N,12325.72695,E,09,7,DN,1.5,1.3,175,0.5*1B
hEGc{OBP~\pIAZyJpT|qljlAhJ@hhNo{I$GPGGA,135412.00,3626.22327606,N,12325.72693512,E,2,09,1.0,9.941,M,9.763,M,7.0,0129*75
$PTNL,GGK,135412.00,101318,3626.22327606,N,12325.72693512,E,5,09,1.9,EHT19.704,M*46
$GPVTG,358.25,T,,M,0.29,N,0.53,K,D*3C
$GPGST,135412.00,0.483,1.491,1.319,175.0,1.490,1.321,3.072*57
$PTNL,PJK,135412.00,101318,,,,,5,09,1.9,,M*24
$PTNL,PJT,WGS84,NONE*21
$PTNL,VGK,135412.00,101318,00000.000,00000.000,00000.000,0,09,1.9,M*04
$PTNL,VHD,135412.00,101318,0.000,0.000,0.000,0.000,0.000,0.000,5,09,1.9,M*03
$GPGSV,4,1,11,22,25,286,35,31,65,347,48,16,24,222,40,29,35,088,48*7A
$GPGSV,4,2,11,3,19,307,41,25,27,045,47,14,82,131,44,26,53,230,46*48
$GPGSV,4,3,11,32,55,142,48*44
$GPGSV,4,4,11,42,42,146,33,50,42,146,33*7A
$PTNL,AVR,135412.00,+0.0000,Yaw,+0.0000,Tilt,,,0.000,0,0.0,00*37
$GPZDA,135412.011,13,10,2018,00,00*5E
$GPHDT,,*4F
$GPROT,,V*08
$GPGSA,A,3,3,14,25,26,29,31,22,32,16,,,,1.9,1.0,1.6*06
$GPRMC,135412.00,A,3626.22327606,N,12325.72693512,E,0.288,358.253,131018,999.9000,E,D*0D
$GPGLL,3626.22327606,N,12325.72693512,E,135412.00,A,D*63
$GPGRS,135412.00,1,-0.1,-0.1,0.1,-0.7,-0.3,0.1,1.1,0.4,-0.6,,,*4B
$PTNLDG,37.0,10.0,291.0,200,0,4,0,8,,,*36
$PFUGDP,GP,135412.00,3626.22328,N,12325.72694,E,09,7,DN,1.5,1.3,175,0.5*15
]A|oJPHHp_M{Ca@{yATMMsMSVjJLi`\_$GPGGA,135413.00,3626.22334763,N,12325.72695202,E,2,09,1.0,9.995,M,9.763,M,4.0,0129*7E
$PTNL,GGK,135413.00,101318,3626.22334763,N,12325.72695202,E,5,09,1.9,EHT19.758,M*4E
$GPVTG,14.47,T,,M,0.29,N,0.53,K,D*03
$GPGST,135413.00,0.485,1.491,1.320,174.9,1.490,1.321,3.072*52
$PTNL,PJK,135413.00,101318,,,,,5,09,1.9,,M*25
$PTNL,PJT,WGS84,NONE*21
$PTNL,VGK,135413.00,101318,00000.000,00000.000,00000.000,0,09,1.9,M*05
$PTNL,VHD,135413.00,101318,0.000,0.000,0.000,0.000,0.000,0.000,5,09,1.9,M*02
$GPGSV,4,1,11,22,25,286,36,31,65,347,48,16,24,222,40,29,35,088,48*79
$GPGSV,4,2,11,3,19,307,41,25,27,045,47,14,82,131,44,26,53,230,46*48
$GPGSV,4,3,11,32,55,142,48*44
$GPGSV,4,4,11,42,42,146,33,50,42,146,35*7C
$PTNL,AVR,135413.00,+0.0000,Yaw,+0.0000,Tilt,,,0.000,0,0.0,00*36
$GPZDA,135413.011,13,10,2018,00,00*5F
$GPHDT,,*4F
$GPROT,,V*08
$GPGSA,A,3,3,14,25,26,29,31,22,32,16,,,,1.9,1.0,1.6*06
$GPRMC,135413.00,A,3626.22334763,N,12325.72695202,E,0.288,14.474,131018,999.9000,E,D*34
$GPGLL,3626.22334763,N,12325.72695202,E,135413.00,A,D*62
$GPGRS,135413.00,1,-0.1,-0.1,0.1,-0.7,-0.3,0.0,1.1,0.4,-0.6,,,*4B
$PTNLDG,36.0,9.0,291.0,200,0,4,0,8,,,*0F
$PFUGDP,GP,135413.00,3626.22335,N,12325.72695,E,09,7,DN,1.5,1.3,175,0.5*19
@JwBHhyGD`e~c_AAlJQHxowozgMXJlh[x$GPGGA,135414.00,3626.22341959,N,12325.72697481,E,2,09,1.0,10.038,M,9.763,M,5.0,0129*44
$PTNL,GGK,135414.00,101318,3626.22341959,N,12325.72697481,E,5,09,1.9,EHT19.801,M*40
$GPVTG,10.06,T,,M,0.27,N,0.49,K,D*07
$GPGST,135414.00,0.490,1.491,1.320,174.9,1.490,1.321,3.072*51
$PTNL,PJK,135414.00,101318,,,,,5,09,1.9,,M*22
$PTNL,PJT,WGS84,NONE*21
$PTNL,VGK,135414.00,101318,00000.000,00000.000,00000.000,0,09,1.9,M*02
$PTNL,VHD,135414.00,101318,0.000,0.000,0.000,0.000,0.000,0.000,5,09,1.9,M*05
$GPGSV,4,1,11,22,25,286,37,31,65,347,48,16,24,222,41,29,35,088,48*79
$GPGSV,4,2,11,3,19,307,39,25,27,045,46,14,82,131,44,26,53,230,45*45
$GPGSV,4,3,11,32,55,142,48*44
$GPGSV,4,4,11,42,42,146,34,50,42,146,34*7A
$PTNL,AVR,135414.00,+0.0000,Yaw,+0.0000,Tilt,,,0.000,0,0.0,00*31
$GPZDA,135414.011,13,10,2018,00,00*58
$GPHDT,,*4F
$GPROT,,V*08
$GPGSA,A,3,3,14,25,26,29,31,22,32,16,,,,1.9,1.0,1.6*06
$GPRMC,135414.00,A,3626.22341959,N,12325.72697481,E,0.266,10.065,131018,999.9000,E,D*39
$GPGLL,3626.22341959,N,12325.72697481,E,135414.00,A,D*6F
$GPGRS,135414.00,1,-0.1,-0.1,0.1,-0.7,-0.4,0.0,1.1,0.4,-0.6,,,*4B
$PTNLDG,39.0,10.0,291.0,200,0,4,0,8,,,*38
$PFUGDP,GP,135414.00,3626.22342,N,12325.72697,E,09,7,DN,1.5,1.3,175,0.5*1C
n{z]}Oxhmv^|KIo_hELrkf~T~jiUyY\$GPGGA,135415.00,3626.22350373,N,12325.72695495,E,2,09,1.0,10.029,M,9.763,M,6.0,0129*43
$PTNL,GGK,135415.00,101318,3626.22350373,N,12325.72695495,E,5,09,1.9,EHT19.792,M*41
$GPVTG,337.54,T,,M,0.37,N,0.68,K,D*34
$GPGST,135415.00,0.478,1.491,1.319,175.0,1.490,1.321,3.072*54
$PTNL,PJK,135415.00,101318,,,,,5,09,1.9,,M*23
$PTNL,PJT,WGS84,NONE*21
$PTNL,VGK,135415.00,101318,00000.000,00000.000,00000.000,0,09,1.9,M*03
$PTNL,VHD,135415.00,101318,0.000,0.000,0.000,0.000,0.000,0.000,5,09,1.9,M*04
$GPGSV,4,1,11,22,25,286,35,31,65,347,48,16,24,222,38,29,35,088,48*75
$GPGSV,4,2,11,3,19,307,40,25,27,045,46,14,82,131,44,26,53,230,45*4B
$GPGSV,4,3,11,32,55,142,48*44
$GPGSV,4,4,11,42,42,146,35,50,42,146,34*7B
$PTNL,AVR,135415.00,+0.0000,Yaw,+0.0000,Tilt,,,0.000,0,0.0,00*30
$GPZDA,135415.011,13,10,2018,00,00*59
$GPHDT,,*4F
$GPROT,,V*08
$GPGSA,A,3,3,14,25,26,29,31,22,32,16,,,,1.9,1.0,1.6*06
$GPRMC,135415.00,A,3626.22350373,N,12325.72695495,E,0.365,337.542,131018,999.9000,E,D*09
$GPGLL,3626.22350373,N,12325.72695495,E,135415.00,A,D*6B
$GPGRS,135415.00,1,0.0,-0.1,0.1,-0.8,-0.4,0.0,1.1,0.4,-0.6,,,*69
$PTNLDG,37.0,8.0,291.0,200,0,4,0,16,,,*30
$PFUGDP,GP,135415.00,3626.22350,N,12325.72695,E,09,7,DN,1.5,1.3,175,0.5*1C
O[^|O@iUWtx_nAP~im@^v_hlMKUSyfJ$GPGGA,135416.00,3626.22360198,N,12325.72689343,E,2,09,1.0,10.008,M,9.763,M,7.0,0129*47
$PTNL,GGK,135416.00,101318,3626.22360198,N,12325.72689343,E,5,09,1.9,EHT19.771,M*4A
$GPVTG,332.34,T,,M,0.42,N,0.79,K,D*35
$GPGST,135416.00,0.459,1.492,1.366,171.9,1.490,1.369,3.135*5C
$PTNL,PJK,135416.00,101318,,,,,5,09,1.9,,M*20
$PTNL,PJT,WGS84,NONE*21
$PTNL,VGK,135416.00,101318,00000.000,00000.000,00000.000,0,09,1.9,M*00
$PTNL,VHD,135416.00,101318,0.000,0.000,0.000,0.000,0.000,0.000,5,09,1.9,M*07
$GPGSV,4,1,11,22,25,286,32,31,65,347,49,16,24,222,37,29,35,088,47*73
$GPGSV,4,2,11,3,19,307,40,25,27,045,45,14,82,131,45,26,53,230,44*48
$GPGSV,4,3,11,32,55,142,48*44
$GPGSV,4,4,11,42,42,146,34,50,42,146,34*7A
$PTNL,AVR,135416.00,+0.0000,Yaw,+0.0000,Tilt,,,0.000,0,0.0,00*33
$GPZDA,135416.011,13,10,2018,00,00*5A
$GPHDT,,*4F
$GPROT,,V*08
$GPGSA,A,3,3,14,25,26,29,31,22,32,16,,,,1.9,1.0,1.6*06
$GPRMC,135416.00,A,3626.22360198,N,12325.72689343,E,0.424,332.343,131018,999.9000,E,D*0F
$GPGLL,3626.22360198,N,12325.72689343,E,135416.00,A,D*6D
$GPGRS,135416.00,1,0.0,-0.1,0.1,-0.7,-0.3,0.0,1.1,0.4,-0.6,,,*62
$PTNLDG,39.0,3.0,291.0,200,0,3,0,16,,,*32
$PFUGDP,GP,135416.00,3626.22360,N,12325.72689,E,09,6,DN,1.5,1.4,172,0.5*10
VhXM_kM~Ch[oHHp_S`Ca@gDFzkJrLrliU$GPGGA,135417.00,3626.22368660,N,12325.72687642,E,2,09,1.0,10.012,M,9.763,M,7.0,0129*4F
$PTNL,GGK,135417.00,101318,3626.22368660,N,12325.72687642,E,5,09,1.9,EHT19.775,M*4D
$GPVTG,1.74,T,,M,0.27,N,0.50,K,D*3A
$GPGST,135417.00,0.467,1.492,1.344,173.6,1.490,1.345,3.104*51
$PTNL,PJK,135417.00,101318,,,,,5,09,1.9,,M*21
$PTNL,PJT,WGS84,NONE*21
$PTNL,VGK,135417.00,101318,00000.000,00000.000,00000.000,0,09,1.9,M*01
$PTNL,VHD,135417.00,101318,0.000,0.000,0.000,0.000,0.000,0.000,5,09,1.9,M*06
$GPGSV,4,1,11,22,25,286,34,31,65,347,49,16,24,222,38,29,35,088,48*75
$GPGSV,4,2,11,3,19,307,40,25,27,045,46,14,82,131,44,26,53,230,44*4A
$GPGSV,4,3,11,32,55,142,47*4B
$GPGSV,4,4,11,42,42,146,33,50,42,146,33*7A
$PTNL,AVR,135417.00,+0.0000,Yaw,+0.0000,Tilt,,,0.000,0,0.0,00*32
$GPZDA,135417.011,13,10,2018,00,00*5B
$GPHDT,,*4F
$GPROT,,V*08
$GPGSA,A,3,3,14,25,26,29,31,22,32,16,,,,1.9,1.0,1.6*06
$GPRMC,135417.00,A,3626.22368660,N,12325.72687642,E,0.268,1.740,131018,999.9000,E,D*06
$GPGLL,3626.22368660,N,12325.72687642,E,135417.00,A,D*6E
$GPGRS,135417.00,1,0.0,-0.1,0.1,-0.8,-0.4,0.0,1.1,0.3,-0.6,,,*6C
$PTNLDG,38.0,6.0,291.0,200,0,3,0,16,,,*36
$PFUGDP,GP,135417.00,3626.22369,N,12325.72688,E,09,6,DN,1.5,1.3,174,0.5*18
ubVo^T@n^}sEGK{ORAocOv~eFqOj{rljl$GPGGA,135418.00,3626.22375214,N,12325.72692220,E,2,09,1.0,10.043,M,9.763,M,7.0,0129*4B
$PTNL,GGK,135418.00,101318,3626.22375214,N,12325.72692220,E,5,09,1.9,EHT19.806,M*46
$GPVTG,43.49,T,,M,0.27,N,0.50,K,D*02
$GPGST,135418.00,0.472,1.492,1.366,171.9,1.490,1.369,3.135*5B
$PTNL,PJK,135418.00,101318,,,,,5,09,1.9,,M*2E
$PTNL,PJT,WGS84,NONE*21
$PTNL,VGK,135418.00,101318,00000.000,00000.000,00000.000,0,09,1.9,M*0E
$PTNL,VHD,135418.00,101318,0.000,0.000,0.000,0.000,0.000,0.000,5,09,1.9,M*09
$GPGSV,4,1,11,22,25,286,32,31,65,347,49,16,24,222,39,29,35,088,47*7D
$GPGSV,4,2,11,3,19,307,41,25,27,045,46,14,82,131,44,26,53,230,45*4A
$GPGSV,4,3,11,32,55,142,48*44
$GPGSV,4,4,11,42,42,146,34,50,42,146,34*7A
$PTNL,AVR,135418.00,+0.0000,Yaw,+0.0000,Tilt,,,0.000,0,0.0,00*3D
$GPZDA,135418.011,13,10,2018,00,00*54
$GPHDT,,*4F
$GPROT,,V*08
$GPGSA,A,3,3,14,25,26,29,31,22,32,16,,,,1.9,1.0,1.6*06
$GPRMC,135418.00,A,3626.22375214,N,12325.72692220,E,0.272,43.492,131018,999.9000,E,D*37
$GPGLL,3626.22375214,N,12325.72692220,E,135418.00,A,D*6E
$GPGRS,135418.00,1,0.0,-0.1,0.1,-0.7,-0.4,0.0,1.1,0.3,-0.6,,,*6C
$PTNLDG,37.0,6.0,291.0,200,0,4,0,12,,,*3A
$PFUGDP,GP,135418.00,3626.22375,N,12325.72692,E,09,6,DN,1.5,1.4,172,0.5*10
iTuBWrPDIJ|CPIWGwO@cf^^xFT~sRLs$GPGGA,135419.00,3626.22381993,N,12325.72695373,E,2,09,1.0,10.069,M,9.763,M,4.0,0129*4E
$PTNL,GGK,135419.00,101318,3626.22381993,N,12325.72695373,E,5,09,1.9,EHT19.832,M*4F
$GPVTG,9.89,T,,M,0.26,N,0.49,K,D*39
$GPGST,135419.00,0.479,1.491,1.319,175.0,1.490,1.321,3.072*59
$PTNL,PJK,135419.00,101318,,,,,5,09,1.9,,M*2F
$PTNL,PJT,WGS84,NONE*21
$PTNL,VGK,135419.00,101318,00000.000,00000.000,00000.000,0,09,1.9,M*0F
$PTNL,VHD,135419.00,101318,0.000,0.000,0.000,0.000,0.000,0.000,5,09,1.9,M*08
$GPGSV,4,1,11,22,25,286,37,31,65,347,48,16,24,222,40,29,35,088,48*78
$GPGSV,4,2,11,3,19,307,40,25,27,045,46,14,82,131,44,26,53,230,46*48
$GPGSV,4,3,11,32,55,142,48*44
$GPGSV,4,4,11,42,42,146,34,50,42,146,34*7A
$PTNL,AVR,135419.00,+0.0000,Yaw,+0.0000,Tilt,,,0.000,0,0.0,00*3C
$GPZDA,135419.011,13,10,2018,00,00*55
$GPHDT,,*4F
$GPROT,,V*08
$GPGSA,A,3,3,14,25,26,29,31,22,32,16,,,,1.9,1.0,1.6*06
$GPRMC,135419.00,A,3626.22381993,N,12325.72695373,E,0.264,9.889,131018,999.9000,E,D*06
$GPGLL,3626.22381993,N,12325.72695373,E,135419.00,A,D*60
$GPGRS,135419.00,1,0.0,-0.1,0.1,-0.7,-0.4,0.0,1.1,0.4,-0.6,,,*6A
$PTNLDG,37.0,12.0,291.0,200,0,4,0,12,,,*0F
$PFUGDP,GP,135419.00,3626.22382,N,12325.72695,E,09,7,DN,1.5,1.3,175,0.5*1F
MSVjJsixb`UsEjWFHG`Ep\|a@DvQ`{Xs$GPGGA,135420.00,3626.22391164,N,12325.72692577,E,2,09,1.0,10.075,M,9.763,M,5.0,0129*4C
$PTNL,GGK,135420.00,101318,3626.22391164,N,12325.72692577,E,5,09,1.9,EHT19.838,M*4B
$GPVTG,335.65,T,,M,0.40,N,0.73,K,D*3E
$GPGST,135420.00,0.472,1.491,1.319,175.0,1.490,1.321,3.072*58
$PTNL,PJK,135420.00,101318,,,,,5,09,1.9,,M*25
$PTNL,PJT,WGS84,NONE*21
$PTNL,VGK,135420.00,101318,00000.000,00000.000,00000.000,0,09,1.9,M*05
$PTNL,VHD,135420.00,101318,0.000,0.000,0.000,0.000,0.000,0.000,5,09,1.9,M*02
$GPGSV,4,1,11,22,25,286,35,31,65,347,48,16,24,222,36,29,35,088,47*74
$GPGSV,4,2,11,3,19,307,40,25,27,045,45,14,82,131,43,26,53,230,46*4C
$GPGSV,4,3,11,32,55,142,48*44
$GPGSV,4,4,11,42,42,146,34,50,42,146,34*7A
$PTNL,AVR,135420.00,+0.0000,Yaw,+0.0000,Tilt,,,0.000,0,0.0,00*36
$GPZDA,135420.011,13,10,2018,00,00*5F
$GPHDT,,*4F
$GPROT,,V*08
