
11:59:54  $GPGGA,040158.00,3643.98324904,N,12304.48789373,E,2,08,0.9,5.444,M,8.625,M,6.4,0612*75
$GPGSV,3,1,09,05,59,284,44,07,12,082,44,29,22,317,42,02,76,014,48*79
$GPGSV,3,2,09,09,14,041,43,19,19,163,43,13,27,187,43,30,10,114,39*7E
$GPGSV,3,3,09,06,40,103,44,,,,,,,,,,,,*40
$GPGSA,A,3,05,07,29,02,09,19,13,06,,,,,1.7,0.9,1.5*37
$GPZDA,040158.02,27,02,1999,00,00*63
$GPGRS,040158.00,1,-0.4,-0.5,0.2,0.2,0.2,0.3,-0.2,0.1,,,,*68

11:59:55  $GPGGA,040159.00,3643.98325850,N,12304.48786021,E,2,08,0.9,5.445,M,8.625,M,7.4,0612*7E
$GPGSV,3,1,09,05,59,284,44,07,12,082,44,29,22,317,42,02,76,014,48*79
$GPGSV,3,2,09,09,14,041,43,19,19,163,42,13,27,187,43,30,10,114,38*7E
$GPGSV,3,3,09,06,40,103,44,,,,,,,,,,,,*40
$GPGSA,A,3,05,07,29,02,09,19,13,06,,,,,1.7,0.9,1.5*37
$GPZDA,040159.02,27,02,1999,00,00*62
$GPGRS,040159.00,1,-0.4,-0.5,0.2,0.2,0.2,0.3,-0.2,0.2,,,,*6A

11:59:56  $GPGGA,040200.00,3643.98327536,N,12304.48783423,E,2,08,0.9,5.361,M,8.625,M,6.0,0612*79
$GPGSV,3,1,09,05,59,284,44,07,12,082,44,29,22,317,42,02,76,014,48*79
$GPGSV,3,2,09,09,14,041,43,19,19,163,42,13,27,187,44,30,10,114,39*78
$GPGSV,3,3,09,06,40,103,44,,,,,,,,,,,,*40
$GPGSA,A,3,05,07,29,02,09,19,13,06,,,,,1.7,0.9,1.5*37
$GPZDA,040200.02,27,02,1999,00,00*6D
$GPGRS,040200.00,1,-0.4,-0.5,0.1,0.2,0.2,0.3,-0.1,0.1,,,,*66

11:59:57  $GPGGA,040201.00,3643.98328045,N,12304.48780213,E,2,08,0.9,5.271,M,8.625,M,7.0,0612*71
$GPGSV,3,1,09,05,59,284,44,07,12,082,44,29,22,317,42,02,76,014,48*79
$GPGSV,3,2,09,09,14,041,43,19,19,163,42,13,27,187,44,30,10,114,40*76
$GPGSV,3,3,09,06,40,103,44,,,,,,,,,,,,*40
$GPGSA,A,3,05,07,29,02,09,19,13,06,,,,,1.7,0.9,1.5*37
$GPZDA,040201.02,27,02,1999,00,00*6C
$GPGRS,040201.00,1,-0.4,-0.5,0.1,0.2,0.3,0.4,-0.1,0.1,,,,*61

11:59:58  $GPGGA,040202.00,3643.98329400,N,12304.48781443,E,2,08,0.9,5.268,M,8.625,M,6.2,0612*7F
$GPGSV,3,1,09,05,59,284,44,07,12,082,44,29,22,317,42,02,76,014,48*79
$GPGSV,3,2,09,09,14,041,43,19,19,163,42,13,27,187,44,30,10,114,38*79
$GPGSV,3,3,09,06,40,103,45,,,,,,,,,,,,*41
$GPGSA,A,3,05,07,29,02,09,19,13,06,,,,,1.7,0.9,1.5*37
$GPZDA,040202.02,27,02,1999,00,00*6F
$GPGRS,040202.00,1,-0.4,-0.5,0.1,0.2,0.3,0.1,0.1,0.2,,,,*49

11:59:59  $GPGGA,040203.00,3643.98330339,N,12304.48783447,E,2,08,0.9,5.315,M,8.625,M,7.2,0612*77
$GPGSV,3,1,09,05,59,284,43,07,12,082,43,29,22,317,42,02,76,014,47*76
$GPGSV,3,2,09,09,14,041,43,19,19,163,43,13,27,187,43,30,10,114,39*7E
$GPGSV,3,3,09,06,40,103,44,,,,,,,,,,,,*40
$GPGSA,A,3,05,07,29,02,09,19,13,06,,,,,1.7,0.9,1.5*37
$GPZDA,040203.02,27,02,1999,00,00*6E
$GPGRS,040203.00,1,-0.4,-0.5,0.1,0.1,0.3,0.1,0.1,0.2,,,,*4B

12:00:00  $GPGGA,040204.00,3643.98331949,N,12304.48785614,E,2,08,0.9,5.541,M,8.625,M,6.4,0612*7E
$GPGSV,3,1,09,05,59,284,44,07,12,082,44,29,22,317,40,02,76,014,47*74
$GPGSV,3,2,09,09,14,041,43,19,19,163,43,13,27,187,44,30,10,114,39*79
$GPGSV,3,3,09,06,40,103,44,,,,,,,,,,,,*40
$GPGSA,A,3,05,07,29,02,09,19,13,06,,,,,1.7,0.9,1.5*37
$GPZDA,040204.02,27,02,1999,00,00*69
$GPGRS,040204.00,1,-0.5,-0.6,0.1,0.3,0.3,0.1,0.1,0.2,,,,*4C

12:00:01  $GPGGA,040205.00,3643.98333338,N,12304.48785367,E,2,08,0.9,5.676,M,8.625,M,7.4,0612*76
$GPGSV,3,1,09,05,59,284,44,07,12,082,44,29,22,317,42,02,76,014,48*79
$GPGSV,3,2,09,09,14,041,43,19,19,163,42,13,27,187,44,30,10,114,39*78
$GPGSV,3,3,09,06,40,103,44,,,,,,,,,,,,*40
$GPGSA,A,3,05,07,29,02,09,19,13,06,,,,,1.7,0.9,1.5*37
$GPZDA,040205.02,27,02,1999,00,00*68
$GPGRS,040205.00,1,-0.6,-0.6,0.1,0.3,0.3,0.1,0.2,0.2,,,,*4D

12:00:02  $GPGGA,040206.00,3643.98338958,N,12304.48791169,E,2,08,0.9,5.558,M,8.625,M,6.0,0612*71
$GPGSV,3,1,09,05,59,284,44,07,12,082,43,29,22,317,41,02,76,014,48*7D
$GPGSV,3,2,09,09,14,041,42,19,19,163,43,13,27,187,43,30,10,114,39*7F
$GPGSV,3,3,09,06,40,103,45,,,,,,,,,,,,*41
$GPGSA,A,3,05,07,29,02,09,19,13,06,,,,,1.7,0.9,1.5*37
$GPZDA,040206.02,27,02,1999,00,00*6B
$GPGRS,040206.00,1,-0.4,-0.4,-0.0,0.3,0.4,-0.0,0.2,-0.0,,,,*66

12:00:03  $GPGGA,040207.00,3643.98343427,N,12304.48795526,E,2,08,0.9,5.480,M,8.625,M,7.0,0612*77
$GPGSV,3,1,09,05,59,284,44,07,12,082,44,29,22,317,41,02,76,014,48*7A
$GPGSV,3,2,09,09,14,041,43,19,19,163,43,13,27,187,44,30,10,114,38*78
$GPGSV,3,3,09,06,40,103,45,,,,,,,,,,,,*41
$GPGSA,A,3,05,07,29,02,09,19,13,06,,,,,1.7,0.9,1.5*37
$GPZDA,040207.02,27,02,1999,00,00*6A
$GPGRS,040207.00,1,-0.4,-0.4,-0.0,0.3,0.4,-0.0,0.3,-0.0,,,,*66

12:00:04  $GPGGA,040208.00,3643.98348986,N,12304.48793978,E,2,08,0.9,5.252,M,8.625,M,6.2,0612*7E
$GPGSV,3,1,09,05,59,284,43,07,12,082,43,29,22,317,41,02,76,014,48*7A
$GPGSV,3,2,09,09,14,041,43,19,19,163,42,13,28,187,44,30,10,114,38*76
$GPGSV,3,3,09,06,40,103,45,,,,,,,,,,,,*41
$GPGSA,A,3,05,07,29,02,09,19,13,06,,,,,1.7,0.9,1.5*37
$GPZDA,040208.02,27,02,1999,00,00*65
$GPGRS,040208.00,1,-0.6,-0.5,0.1,0.3,0.2,-0.0,0.2,0.1,,,,*6D

12:00:05  $GPGGA,040209.00,3643.98353519,N,12304.48792758,E,2,08,0.9,5.111,M,8.625,M,7.2,0612*77
$GPGSV,3,1,09,05,59,284,42,07,12,082,43,29,22,317,41,02,76,014,48*7B
$GPGSV,3,2,09,09,14,041,43,19,19,163,43,13,28,187,43,30,10,114,38*70
$GPGSV,3,3,09,06,40,103,44,,,,,,,,,,,,*40
$GPGSA,A,3,05,07,29,02,09,19,13,06,,,,,1.7,0.9,1.5*37
$GPZDA,040209.02,27,02,1999,00,00*64
$GPGRS,040209.00,1,-0.6,-0.5,0.1,0.3,0.3,-0.0,0.3,0.2,,,,*6F

12:00:06  $GPGGA,040210.00,3643.98358811,N,12304.48786636,E,2,08,0.9,5.086,M,8.625,M,6.4,0612*75
$GPGSV,3,1,09,05,59,284,44,07,12,082,44,29,22,317,39,02,76,014,48*75
$GPGSV,3,2,09,09,14,041,43,19,19,163,42,13,28,187,44,30,10,114,39*77
$GPGSV,3,3,09,06,40,103,45,,,,,,,,,,,,*41
$GPGSA,A,3,05,07,29,02,09,19,13,06,,,,,1.7,0.9,1.5*37
$GPZDA,040210.02,27,02,1999,00,00*6C
$GPGRS,040210.00,1,-0.5,-0.4,0.1,0.3,0.3,-0.1,0.3,0.0,,,,*66

12:00:07  $GPGGA,040211.00,3643.98364554,N,12304.48778420,E,2,08,0.9,4.985,M,8.625,M,7.4,0612*79
$GPGSV,3,1,09,05,59,284,44,07,12,082,44,29,22,317,41,02,76,014,48*7A
$GPGSV,3,2,09,09,14,041,43,19,19,163,41,13,28,187,44,30,10,114,40*7A
$GPGSV,3,3,09,06,40,103,45,,,,,,,,,,,,*41
$GPGSA,A,3,05,07,29,02,09,19,13,06,,,,,1.7,0.9,1.5*37
$GPZDA,040211.02,27,02,1999,00,00*6D
$GPGRS,040211.00,1,-0.5,-0.4,0.1,0.3,0.3,-0.1,0.3,0.1,,,,*66

12:00:08  $GPGGA,040212.00,3643.98367523,N,12304.48775567,E,2,08,0.9,4.850,M,8.625,M,8.4,0612*70
$GPGSV,3,1,09,05,59,284,44,07,12,082,44,29,22,317,42,02,76,014,48*79
$GPGSV,3,2,09,09,14,041,43,19,19,163,41,13,28,187,44,30,10,114,39*74
$GPGSV,3,3,09,06,40,103,44,,,,,,,,,,,,*40
$GPGSA,A,3,05,07,29,02,09,19,13,06,,,,,1.7,0.9,1.5*37
$GPZDA,040212.02,27,02,1999,00,00*6E
$GPGRS,040212.00,1,-0.5,-0.4,0.1,0.3,0.3,-0.1,0.3,0.1,,,,*65

12:00:09  $GPGGA,040213.00,3643.98366927,N,12304.48776419,E,2,08,0.9,4.705,M,8.625,M,7.0,0612*77
$GPGSV,3,1,09,05,59,284,45,07,12,082,44,29,22,317,41,02,76,014,48*7B
$GPGSV,3,2,09,09,14,041,43,19,19,163,41,13,28,187,43,30,10,114,38*72
$GPGSV,3,3,09,06,40,103,45,,,,,,,,,,,,*41
$GPGSA,A,3,05,07,29,02,09,19,13,06,,,,,1.7,0.9,1.5*37
$GPZDA,040213.02,27,02,1999,00,00*6F
$GPGRS,040213.00,1,-0.5,-0.3,0.2,0.3,0.1,0.3,-0.1,0.1,,,,*62

12:00:10  $GPGGA,040214.00,3643.98367944,N,12304.48775387,E,2,08,0.9,4.661,M,8.625,M,8.0,0612*7B
$GPGSV,3,1,09,05,59,284,44,07,12,082,44,29,22,317,41,02,76,014,48*7A
$GPGSV,3,2,09,09,14,041,44,19,19,163,42,13,28,187,43,30,10,114,38*76
$GPGSV,3,3,09,06,40,103,44,,,,,,,,,,,,*40
$GPGSA,A,3,05,07,29,02,09,19,13,06,,,,,1.7,0.9,1.5*37
$GPZDA,040214.02,27,02,1999,00,00*68
$GPGRS,040214.00,1,-0.5,-0.4,0.2,0.3,0.1,0.3,-0.1,0.1,,,,*62

12:00:11  $GPGGA,040215.00,3643.98368152,N,12304.48776473,E,2,08,0.9,4.919,M,8.625,M,7.2,0612*78
$GPGSV,3,1,09,05,59,284,44,07,12,082,44,29,22,317,38,02,76,014,48*74
$GPGSV,3,2,09,09,14,041,43,19,19,163,42,13,28,187,43,30,10,114,39*70
$GPGSV,3,3,09,06,40,103,44,,,,,,,,,,,,*40
$GPGSA,A,3,05,07,29,02,09,19,13,06,,,,,1.7,0.9,1.5*37
$GPZDA,040215.02,27,02,1999,00,00*69
$GPGRS,040215.00,1,-0.3,-0.4,0.0,0.3,0.2,0.3,-0.1,-0.1,,,,*49

12:00:12  $GPGGA,040216.00,3643.98370217,N,12304.48774487,E,2,08,0.9,4.973,M,8.625,M,8.2,0612*7A
$GPGSV,3,1,09,05,59,284,44,07,12,082,44,29,22,317,41,02,76,014,48*7A
$GPGSV,3,2,09,09,14,041,43,19,19,163,40,13,28,187,44,30,10,114,39*75
$GPGSV,3,3,09,06,40,103,45,,,,,,,,,,,,*41
$GPGSA,A,3,05,07,29,02,09,19,13,06,,,,,1.7,0.9,1.5*37
$GPZDA,040216.02,27,02,1999,00,00*6A
$GPGRS,040216.00,1,-0.3,-0.4,0.0,0.3,0.2,0.3,-0.2,-0.1,,,,*49

12:00:13  $GPGGA,040217.00,3643.98371435,N,12304.48781172,E,2,08,0.9,4.839,M,8.625,M,6.2,0612*78
$GPGSV,3,1,09,05,59,284,45,07,12,082,44,29,22,317,39,02,76,014,48*74
$GPGSV,3,2,09,09,14,041,44,19,19,163,40,13,28,187,43,30,10,114,39*75
$GPGSV,3,3,09,06,40,103,45,,,,,,,,,,,,*41
$GPGSA,A,3,05,07,29,02,09,19,13,06,,,,,1.7,0.9,1.5*37
$GPZDA,040217.02,27,02,1999,00,00*6B
$GPGRS,040217.00,1,-0.3,-0.2,0.1,0.3,0.1,0.3,-0.2,-0.1,,,,*4C

12:00:14  $GPGGA,040218.00,3643.98372264,N,12304.48788092,E,2,08,0.9,4.866,M,8.625,M,7.2,0612*7B
$GPGSV,3,1,09,05,59,284,43,07,12,082,45,29,22,317,41,02,76,014,48*7C
$GPGSV,3,2,09,09,14,041,43,19,19,163,42,13,28,187,43,30,10,114,39*70
$GPGSV,3,3,09,06,40,103,44,,,,,,,,,,,,*40
$GPGSA,A,3,05,07,29,02,09,19,13,06,,,,,1.7,0.9,1.5*37
$GPZDA,040218.02,27,02,1999,00,00*64
$GPGRS,040218.00,1,-0.3,-0.2,0.1,0.3,0.1,0.4,-0.2,-0.1,,,,*44

12:00:15  $GPGGA,040219.00,3643.98364648,N,12304.48780369,E,2,08,0.9,4.969,M,8.625,M,6.4,0612*71
$GPGSV,3,1,09,05,59,284,43,07,12,082,45,29,22,317,39,02,76,014,48*73
$GPGSV,3,2,09,09,14,041,43,19,19,163,42,13,28,187,44,30,10,114,39*77
$GPGSV,3,3,09,06,40,103,45,,,,,,,,,,,,*41
$GPGSA,A,3,05,07,29,02,09,19,13,06,,,,,1.7,0.9,1.5*37
$GPZDA,040219.02,27,02,1999,00,00*65
$GPGRS,040219.00,1,-0.4,0.1,0.2,0.3,-0.2,-0.1,0.1,-0.0,,,,*46

12:00:16  $GPGGA,040220.00,3643.98359603,N,12304.48770993,E,2,08,0.9,4.959,M,8.625,M,7.4,0612*78
$GPGSV,3,1,09,05,59,284,44,07,12,082,45,29,22,317,42,02,76,014,48*78
$GPGSV,3,2,09,09,14,041,43,19,19,163,41,13,28,187,44,30,10,114,39*74
$GPGSV,3,3,09,06,40,103,45,,,,,,,,,,,,*41
$GPGSA,A,3,05,07,29,02,09,19,13,06,,,,,1.7,0.9,1.5*37
$GPZDA,040220.02,27,02,1999,00,00*6F
$GPGRS,040220.00,1,-0.4,0.1,0.2,0.4,-0.2,-0.1,0.1,-0.0,,,,*4B

12:00:17  $GPGGA,040221.00,3643.98353600,N,12304.48769169,E,2,08,0.9,5.061,M,8.625,M,6.0,0612*73
$GPGSV,3,1,09,05,59,284,44,07,12,082,45,29,22,317,41,02,76,014,48*7B
$GPGSV,3,2,09,09,14,041,44,19,19,163,41,13,28,187,43,30,10,114,40*7A
$GPGSV,3,3,09,06,40,103,45,,,,,,,,,,,,*41
$GPGSA,A,3,05,07,29,02,09,19,13,06,,,,,1.7,0.9,1.5*37
$GPZDA,040221.02,27,02,1999,00,00*6E
$GPGRS,040221.00,1,-0.4,0.2,0.1,0.3,-0.2,-0.1,0.1,-0.2,,,,*4F

12:00:18  $GPGGA,040222.00,3643.98348298,N,12304.48769621,E,2,08,0.9,5.164,M,8.625,M,7.0,0612*71
$GPGSV,3,1,09,05,59,284,44,07,12,082,45,29,22,317,42,02,76,014,48*78
$GPGSV,3,2,09,09,14,041,44,19,19,163,40,13,28,187,44,30,10,114,39*72
$GPGSV,3,3,09,06,40,103,44,,,,,,,,,,,,*40
$GPGSA,A,3,05,07,29,02,09,19,13,06,,,,,1.7,0.9,1.5*37
$GPZDA,040222.02,27,02,1999,00,00*6D
$GPGRS,040222.00,1,-0.4,0.2,0.1,0.3,-0.2,-0.1,0.2,-0.2,,,,*4F

12:00:19  $GPGGA,040223.00,3643.98342813,N,12304.48773646,E,2,08,0.9,5.331,M,8.625,M,6.2,0612*78
$GPGSV,3,1,09,05,59,284,44,07,12,082,44,29,22,317,37,02,76,014,48*7B
$GPGSV,3,2,09,09,14,041,44,19,19,163,40,13,28,187,44,30,10,114,39*72
$GPGSV,3,3,09,06,40,103,45,,,,,,,,,,,,*41
$GPGSA,A,3,05,07,29,02,09,19,13,06,,,,,1.7,0.9,1.5*37
$GPZDA,040223.02,27,02,1999,00,00*6C
$GPGRS,040223.00,1,-0.5,-0.2,0.3,0.2,-0.1,-0.1,0.2,0.3,,,,*4E

12:00:20  $GPGGA,040224.00,3643.98338707,N,12304.48775757,E,2,08,0.9,5.469,M,8.625,M,7.2,0612*74
$GPGSV,3,1,09,05,59,284,45,07,12,082,44,29,22,317,42,02,76,014,48*78
$GPGSV,3,2,09,09,14,041,44,19,19,163,41,13,28,187,43,30,10,114,39*74
$GPGSV,3,3,09,06,39,103,44,,,,,,,,,,,,*4E
$GPGSA,A,3,05,07,29,02,09,19,13,06,,,,,1.7,0.9,1.5*37
$GPZDA,040224.02,27,02,1999,00,00*6B
$GPGRS,040224.00,1,-0.5,-0.2,0.3,0.2,-0.1,-0.1,0.2,0.3,,,,*49

12:00:21  $GPGGA,040225.00,3643.98337347,N,12304.48776865,E,2,08,0.9,5.710,M,8.625,M,6.4,0612*7D
$GPGSV,3,1,09,05,59,284,44,07,12,082,44,29,22,317,40,02,76,014,47*74
$GPGSV,3,2,09,09,14,041,44,19,19,163,41,13,28,187,43,30,10,114,39*74
$GPGSV,3,3,09,06,39,103,45,,,,,,,,,,,,*4F
$GPGSA,A,3,05,07,29,02,09,19,13,06,,,,,1.7,0.9,1.5*37
$GPZDA,040225.02,27,02,1999,00,00*6A
$GPGRS,040225.00,1,-0.5,-0.2,0.4,0.2,-0.2,0.3,-0.3,0.4,,,,*48

12:00:22  $GPGGA,040226.00,3643.98337642,N,12304.48775118,E,2,08,0.9,5.867,M,8.625,M,7.4,0612*70
$GPGSV,3,1,09,05,59,284,44,07,12,082,45,29,22,317,39,02,76,014,48*74
$GPGSV,3,2,09,09,14,041,44,19,19,163,41,13,28,187,44,30,10,114,39*73
$GPGSV,3,3,09,06,39,103,45,,,,,,,,,,,,*4F
$GPGSA,A,3,05,07,29,02,09,19,13,06,,,,,1.7,0.9,1.5*37
$GPZDA,040226.02,27,02,1999,00,00*69
$GPGRS,040226.00,1,-0.5,-0.3,0.5,0.2,-0.2,0.3,-0.4,0.4,,,,*4C

12:00:23  $GPGGA,040227.00,3643.98338811,N,12304.48770755,E,2,08,0.9,5.866,M,8.625,M,6.0,0612*78
$GPGSV,3,1,09,05,59,284,45,07,12,082,45,29,22,317,41,02,76,014,48*7A
$GPGSV,3,2,09,09,14,041,44,19,19,163,41,13,28,187,44,30,10,114,39*73
$GPGSV,3,3,09,06,39,103,45,,,,,,,,,,,,*4F
$GPGSA,A,3,05,07,29,02,09,19,13,06,,,,,1.7,0.9,1.5*37
$GPZDA,040227.02,27,02,1999,00,00*68
$GPGRS,040227.00,1,-0.5,-0.3,0.5,0.1,-0.3,0.4,-0.4,0.5,,,,*49

12:00:24  $GPGGA,040228.00,3643.98339615,N,12304.48771176,E,2,08,0.9,5.907,M,8.625,M,7.0,0612*7D
$GPGSV,3,1,09,05,59,284,45,07,12,082,44,29,22,317,41,02,76,015,48*7A
$GPGSV,3,2,09,09,14,041,43,19,19,163,41,13,28,187,45,30,10,114,39*75
$GPGSV,3,3,09,06,39,103,45,,,,,,,,,,,,*4F
$GPGSA,A,3,05,07,29,02,09,19,13,06,,,,,1.7,0.9,1.5*37
$GPZDA,040228.02,27,02,1999,00,00*67
$GPGRS,040228.00,1,-0.5,-0.3,0.5,0.1,-0.3,0.4,-0.5,0.6,,,,*44

12:00:25  $GPGGA,040229.00,3643.98342221,N,12304.48777933,E,2,08,0.9,5.785,M,8.625,M,6.2,0612*7B
$GPGSV,3,1,09,05,59,284,45,07,12,082,44,29,22,317,40,02,76,015,48*7B
$GPGSV,3,2,09,09,14,041,44,19,19,163,41,13,28,187,45,30,10,114,38*73
$GPGSV,3,3,09,06,39,103,45,,,,,,,,,,,,*4F
$GPGSA,A,3,05,07,29,02,09,19,13,06,,,,,1.7,0.9,1.5*37
$GPZDA,040229.02,27,02,1999,00,00*66
$GPGRS,040229.00,1,-0.4,0.3,0.5,0.2,-0.7,0.3,-0.5,0.2,,,,*6D

12:00:26  $GPGGA,040230.00,3643.98343817,N,12304.48779572,E,2,08,0.9,5.734,M,8.625,M,7.2,0612*71
$GPGSV,3,1,09,05,59,284,45,07,12,082,44,29,22,317,41,02,76,015,48*7A
$GPGSV,3,2,09,09,14,041,44,19,19,163,40,13,28,187,44,30,10,114,39*72
$GPGSV,3,3,09,06,39,103,45,,,,,,,,,,,,*4F
$GPGSA,A,3,05,07,29,02,09,19,13,06,,,,,1.7,0.9,1.5*37
$GPZDA,040230.02,27,02,1999,00,00*6E
$GPGRS,040230.00,1,-0.4,0.3,0.6,0.2,-0.8,0.3,-0.5,0.2,,,,*69

12:00:27  $GPGGA,040231.00,3643.98341172,N,12304.48777528,E,2,08,0.9,5.695,M,8.625,M,6.4,0612*74
$GPGSV,3,1,09,05,59,284,42,07,12,082,44,29,22,317,41,02,76,015,48*7D
$GPGSV,3,2,09,09,14,041,44,19,19,163,41,13,28,187,44,30,10,114,39*73
$GPGSV,3,3,09,06,39,103,45,,,,,,,,,,,,*4F
$GPGSA,A,3,05,07,29,02,09,19,13,06,,,,,1.7,0.9,1.5*37
$GPZDA,040231.02,27,02,1999,00,00*6F
$GPGRS,040231.00,1,-0.4,0.5,0.7,0.2,-0.9,0.1,-0.4,0.3,,,,*6C

12:00:28  $GPGGA,040232.00,3643.98338105,N,12304.48777544,E,2,08,0.9,5.618,M,8.625,M,7.4,0612*77
$GPGSV,3,1,09,05,59,284,44,07,12,082,44,29,22,317,39,02,76,015,48*74
$GPGSV,3,2,09,09,14,041,44,19,19,163,40,13,28,187,44,30,10,114,38*73
$GPGSV,3,3,09,06,39,103,45,,,,,,,,,,,,*4F
$GPGSA,A,3,05,07,29,02,09,19,13,06,,,,,1.7,0.9,1.5*37
$GPZDA,040232.02,27,02,1999,00,00*6C
$GPGRS,040232.00,1,-0.4,0.5,0.7,0.2,-1.0,0.1,-0.4,0.4,,,,*60

12:00:29  $GPGGA,040233.00,3643.98335301,N,12304.48779194,E,2,08,0.9,5.649,M,8.625,M,8.4,0612*71
$GPGSV,3,1,09,05,59,284,43,07,12,082,44,29,22,317,41,02,76,015,48*7C
$GPGSV,3,2,09,09,14,041,44,19,19,163,40,13,28,187,44,30,10,114,39*72
$GPGSV,3,3,09,06,39,103,44,,,,,,,,,,,,*4E
$GPGSA,A,3,05,07,29,02,09,19,13,06,,,,,1.7,0.9,1.5*37
$GPZDA,040233.02,27,02,1999,00,00*6D
$GPGRS,040233.00,1,-0.4,0.6,0.8,0.2,-1.0,0.1,-0.4,0.4,,,,*6D

12:00:30  $GPGGA,040234.00,3643.98333696,N,12304.48782912,E,2,08,0.9,5.768,M,8.625,M,7.0,0612*70
$GPGSV,3,1,09,05,59,284,43,07,12,082,44,29,22,317,39,02,76,015,48*73
$GPGSV,3,2,09,09,14,041,43,19,19,163,40,13,28,187,43,30,10,114,39*72
$GPGSV,3,3,09,06,39,103,45,,,,,,,,,,,,*4F
$GPGSA,A,3,05,07,29,02,09,19,13,06,,,,,1.7,0.9,1.5*37
$GPZDA,040234.02,27,02,1999,00,00*6A
$GPGRS,040234.00,1,-0.5,0.6,0.7,0.2,-1.1,0.1,-0.4,0.4,,,,*65

12:00:31  $GPGGA,040235.00,3643.98334121,N,12304.48783181,E,2,08,0.9,5.858,M,8.625,M,8.0,0612*7D
$GPGSV,3,1,09,05,59,284,44,07,12,082,44,29,22,317,42,02,76,015,47*77
$GPGSV,3,2,09,09,14,041,43,19,19,163,41,13,28,187,44,30,10,114,39*74
$GPGSV,3,3,09,06,39,103,44,,,,,,,,,,,,*4E
$GPGSA,A,3,05,07,29,02,09,19,13,06,,,,,1.7,0.9,1.5*37
$GPZDA,040235.02,27,02,1999,00,00*6B
$GPGRS,040235.00,1,-0.5,0.7,0.7,0.2,-1.1,0.1,-0.4,0.4,,,,*65

12:00:32  $GPGGA,040236.00,3643.98335534,N,12304.48782813,E,2,08,0.9,5.897,M,8.625,M,7.2,0612*72
$GPGSV,3,1,09,05,59,284,43,07,12,082,44,29,22,317,39,02,76,015,47*7C
$GPGSV,3,2,09,09,14,041,44,19,19,163,40,13,28,187,43,30,10,114,40*7B
$GPGSV,3,3,09,06,39,103,45,,,,,,,,,,,,*4F
$GPGSA,A,3,05,07,29,02,09,19,13,06,,,,,1.7,0.9,1.5*37
$GPZDA,040236.02,27,02,1999,00,00*68
$GPGRS,040236.00,1,-0.3,0.8,0.7,0.2,-1.4,0.0,-0.5,0.2,,,,*6C

12:00:33  $GPGGA,040237.00,3643.98336261,N,12304.48781737,E,2,08,0.9,5.857,M,8.625,M,8.2,0612*7E
$GPGSV,3,1,09,05,59,284,43,07,12,082,44,29,22,317,41,02,76,015,47*73
$GPGSV,3,2,09,09,14,041,44,19,19,163,41,13,28,187,44,30,10,114,39*73
$GPGSV,3,3,09,06,39,103,45,,,,,,,,,,,,*4F
$GPGSA,A,3,05,07,29,02,09,19,13,06,,,,,1.7,0.9,1.5*37
$GPZDA,040237.02,27,02,1999,00,00*69
$GPGRS,040237.00,1,-0.3,0.9,0.7,0.2,-1.4,0.0,-0.5,0.2,,,,*6C

12:00:34  $GPGGA,040238.00,3643.98337384,N,12304.48783816,E,2,08,0.9,5.682,M,8.625,M,6.2,0612*7C
$GPGSV,3,1,09,05,59,284,44,07,12,082,44,29,22,317,38,02,76,015,48*75
$GPGSV,3,2,09,09,14,041,44,19,19,163,40,13,28,187,43,30,10,114,38*74
$GPGSV,3,3,09,06,39,103,44,,,,,,,,,,,,*4E
$GPGSA,A,3,05,07,29,02,09,19,13,06,,,,,1.7,0.9,1.5*37
$GPZDA,040238.02,27,02,1999,00,00*66
$GPGRS,040238.00,1,-0.3,0.7,0.5,0.2,-0.8,-0.2,-0.0,0.1,,,,*4B

12:00:35  $GPGGA,040239.00,3643.98339686,N,12304.48785548,E,2,08,0.9,5.639,M,8.625,M,7.2,0612*75
$GPGSV,3,1,09,05,59,284,44,07,12,082,44,29,22,317,40,02,76,015,48*7A
$GPGSV,3,2,09,09,14,041,44,19,19,163,40,13,28,187,43,30,10,114,39*75
$GPGSV,3,3,09,06,39,103,44,,,,,,,,,,,,*4E
$GPGSA,A,3,05,07,29,02,09,19,13,06,,,,,1.7,0.9,1.5*37
$GPZDA,040239.02,27,02,1999,00,00*67
$GPGRS,040239.00,1,-0.3,0.7,0.5,0.2,-0.8,-0.3,0.0,0.1,,,,*66

12:00:36  $GPGGA,040240.00,3643.98340388,N,12304.48789162,E,2,08,0.9,5.690,M,8.625,M,6.4,0612*7A
$GPGSV,3,1,09,05,59,284,43,07,12,082,44,29,22,317,40,02,76,015,48*7D
$GPGSV,3,2,09,09,14,041,43,19,19,163,40,13,28,187,43,30,10,114,39*72
$GPGSV,3,3,09,06,39,103,45,,,,,,,,,,,,*4F
$GPGSA,A,3,05,07,29,02,09,19,13,06,,,,,1.7,0.9,1.5*37
$GPZDA,040240.02,27,02,1999,00,00*69
$GPGRS,040240.00,1,-0.2,0.7,0.3,0.1,-0.7,-0.3,0.1,0.1,,,,*62

12:00:37  $GPGGA,040241.00,3643.98340329,N,12304.48791809,E,2,08,0.9,5.628,M,8.625,M,7.4,0612*7F
$GPGSV,3,1,09,05,59,284,43,07,12,082,44,29,22,317,39,02,76,015,47*7C
$GPGSV,3,2,09,09,14,041,44,19,19,163,40,13,28,187,43,30,10,114,39*75
$GPGSV,3,3,09,06,39,103,45,,,,,,,,,,,,*4F
$GPGSA,A,3,05,07,29,02,09,19,13,06,,,,,1.7,0.9,1.5*37
$GPZDA,040241.02,27,02,1999,00,00*68
$GPGRS,040241.00,1,-0.2,0.7,0.3,0.1,-0.7,-0.4,0.1,0.1,,,,*64

12:00:38  $GPGGA,040242.00,3643.98338434,N,12304.48791740,E,2,08,0.9,5.572,M,8.625,M,6.0,0612*73
$GPGSV,3,1,09,05,59,284,44,07,12,082,44,29,22,317,40,02,76,015,48*7A
$GPGSV,3,2,09,09,14,041,44,19,19,163,40,13,28,187,43,30,10,114,38*74
$GPGSV,3,3,09,06,39,103,44,,,,,,,,,,,,*4E
$GPGSA,A,3,05,07,29,02,09,19,13,06,,,,,1.7,0.9,1.5*37
$GPZDA,040242.02,27,02,1999,00,00*6B
$GPGRS,040242.00,1,-0.2,0.4,0.2,0.2,-0.5,-0.3,0.2,-0.0,,,,*4C

12:00:39  $GPGGA,040243.00,3643.98337139,N,12304.48791782,E,2,08,0.9,5.566,M,8.625,M,7.0,0612*7F
$GPGSV,3,1,09,05,59,284,43,07,12,082,44,29,22,317,38,02,76,015,48*72
$GPGSV,3,2,09,09,14,041,43,19,19,163,40,13,28,187,44,30,10,114,39*75
$GPGSV,3,3,09,06,39,103,45,,,,,,,,,,,,*4F
$GPGSA,A,3,05,07,29,02,09,19,13,06,,,,,1.7,0.9,1.5*37
$GPZDA,040243.02,27,02,1999,00,00*6A
$GPGRS,040243.00,1,-0.2,0.4,0.2,0.2,-0.5,-0.4,0.2,-0.0,,,,*4A

12:00:40  $GPGGA,040244.00,3643.98335894,N,12304.48788559,E,2,08,0.9,5.500,M,8.625,M,6.2,0612*7B
$GPGSV,3,1,09,05,59,284,44,07,12,082,44,29,22,317,41,02,76,015,48*7B
$GPGSV,3,2,09,09,14,041,44,19,19,163,40,13,28,187,43,30,10,113,39*72
$GPGSV,3,3,09,06,39,103,44,,,,,,,,,,,,*4E
$GPGSA,A,3,05,07,29,02,09,19,13,06,,,,,1.7,0.9,1.5*37
$GPZDA,040244.02,27,02,1999,00,00*6D
$GPGRS,040244.00,1,-0.2,0.4,0.3,0.2,-0.5,0.1,-0.2,-0.1,,,,*48

12:00:41  $GPGGA,040245.00,3643.98335812,N,12304.48785892,E,2,08,0.9,5.482,M,8.625,M,7.2,0612*79
$GPGSV,3,1,09,05,59,284,44,07,12,082,44,29,22,317,41,02,76,015,48*7B
$GPGSV,3,2,09,09,14,041,44,19,19,163,40,13,28,187,44,30,10,113,39*75
$GPGSV,3,3,09,06,39,103,45,,,,,,,,,,,,*4F
$GPGSA,A,3,05,07,29,02,09,19,13,06,,,,,1.7,0.9,1.5*37
$GPZDA,040245.02,27,02,1999,00,00*6C
$GPGRS,040245.00,1,-0.2,0.3,0.2,0.2,-0.4,0.1,-0.1,-0.1,,,,*4D

12:00:42  $GPGGA,040246.00,3643.98337774,N,12304.48784214,E,2,09,0.9,5.349,M,8.625,M,6.4,0612*74
$GPGSV,3,1,09,05,59,284,44,07,12,082,44,29,22,317,41,02,76,015,48*7B
$GPGSV,3,2,09,09,14,041,44,19,19,163,39,13,28,187,44,30,10,113,40*75
$GPGSV,3,3,09,06,39,103,45,,,,,,,,,,,,*4F
$GPGSA,A,3,05,07,29,02,09,19,13,30,06,,,,1.7,0.9,1.4*35
$GPZDA,040246.02,27,02,1999,00,00*6F
$GPGRS,040246.00,1,-0.3,0.2,0.3,0.3,-0.5,0.0,-0.2,0.2,-0.1,,,*61

12:00:43  $GPGGA,040247.00,3643.98340058,N,12304.48782297,E,2,09,0.9,5.221,M,8.625,M,7.4,0612*7F
$GPGSV,3,1,09,05,59,284,44,07,12,082,44,29,22,317,42,02,76,015,48*78
$GPGSV,3,2,09,09,14,041,44,19,19,163,40,13,28,187,43,30,10,113,39*72
$GPGSV,3,3,09,06,39,103,44,,,,,,,,,,,,*4E
$GPGSA,A,3,05,07,29,02,09,19,13,30,06,,,,1.7,0.9,1.4*35
$GPZDA,040247.02,27,02,1999,00,00*6E
$GPGRS,040247.00,1,-0.3,0.2,0.3,0.3,-0.5,0.0,-0.2,0.2,-0.1,,,*60

12:00:44  $GPGGA,040248.00,3643.98343681,N,12304.48780930,E,2,09,0.9,5.216,M,8.625,M,6.0,0612*74
$GPGSV,3,1,09,05,59,284,44,07,12,082,44,29,22,317,42,02,76,015,48*78
$GPGSV,3,2,09,09,14,041,44,19,19,163,40,13,28,187,44,30,10,113,39*75
$GPGSV,3,3,09,06,39,103,44,,,,,,,,,,,,*4E
$GPGSA,A,3,05,07,29,02,09,19,13,30,06,,,,1.7,0.9,1.4*35
$GPZDA,040248.02,27,02,1999,00,00*61
$GPGRS,040248.00,1,-0.3,0.4,0.3,0.2,-0.6,0.0,-0.2,-0.0,0.0,,,*68

12:00:45  $GPGGA,040249.00,3643.98346137,N,12304.48781047,E,2,09,0.9,5.247,M,8.625,M,7.0,0612*77
$GPGSV,3,1,09,05,59,284,44,07,12,082,44,29,22,317,41,02,76,015,48*7B
$GPGSV,3,2,09,09,14,041,44,19,19,163,40,13,28,187,45,30,10,113,40*7A
$GPGSV,3,3,09,06,39,103,45,,,,,,,,,,,,*4F
$GPGSA,A,3,05,07,29,02,09,19,13,30,06,,,,1.7,0.9,1.4*35
$GPZDA,040249.02,27,02,1999,00,00*60
$GPGRS,040249.00,1,-0.3,0.4,0.3,0.2,-0.5,0.1,-0.2,-0.1,0.0,,,*6A

12:00:46  $GPGGA,040250.00,3643.98344851,N,12304.48781082,E,2,09,0.9,5.253,M,8.625,M,6.2,0612*7B
$GPGSV,3,1,09,05,59,284,44,07,12,082,43,29,22,317,41,02,76,015,48*7C
$GPGSV,3,2,09,09,14,041,44,19,19,163,40,13,28,187,45,30,10,113,39*74
$GPGSV,3,3,09,06,39,103,45,,,,,,,,,,,,*4F
$GPGSA,A,3,05,07,29,02,09,19,13,30,06,,,,1.7,0.9,1.4*35
$GPZDA,040250.02,27,02,1999,00,00*68
$GPGRS,040250.00,1,-0.3,0.5,0.4,0.2,-0.6,0.2,-0.4,-0.1,0.0,,,*62

12:00:47  $GPGGA,040251.00,3643.98344286,N,12304.48781607,E,2,09,0.9,5.280,M,8.625,M,7.2,0612*7E
$GPGSV,3,1,09,05,59,284,44,07,12,082,44,29,22,317,41,02,76,015,48*7B
$GPGSV,3,2,09,09,14,041,44,19,19,163,40,13,28,187,44,30,10,113,39*75
$GPGSV,3,3,09,06,39,103,44,,,,,,,,,,,,*4E
$GPGSA,A,3,05,07,29,02,09,19,13,30,06,,,,1.7,0.9,1.4*35
$GPZDA,040251.02,27,02,1999,00,00*69
$GPGRS,040251.00,1,-0.3,0.5,0.4,0.2,-0.6,0.3,-0.4,-0.2,0.1,,,*60

12:00:48  $GPGGA,040252.00,3643.98342013,N,12304.48786969,E,2,09,0.9,5.336,M,8.625,M,6.4,0612*7E
$GPGSV,3,1,09,05,59,285,44,07,12,082,44,29,22,317,41,02,76,015,48*7A
$GPGSV,3,2,09,09,14,041,44,19,19,163,40,13,28,187,44,30,10,113,40*7B
$GPGSV,3,3,09,06,39,103,44,,,,,,,,,,,,*4E
$GPGSA,A,3,05,07,29,02,09,19,13,30,06,,,,1.7,0.9,1.4*35
$GPZDA,040252.02,27,02,1999,00,00*6A
$GPGRS,040252.00,1,-0.2,0.3,0.3,0.2,-0.6,0.2,-0.4,0.1,-0.1,,,*61

12:00:49  $GPGGA,040253.00,3643.98340641,N,12304.48791167,E,2,09,0.9,5.333,M,8.625,M,7.4,0612*78
$GPGSV,3,1,09,05,59,285,44,07,12,082,44,29,22,317,41,02,76,015,48*7A
$GPGSV,3,2,09,09,14,041,44,19,19,163,41,13,28,187,44,30,10,113,40*7A
$GPGSV,3,3,09,06,39,103,45,,,,,,,,,,,,*4F
$GPGSA,A,3,05,07,29,02,09,19,13,30,06,,,,1.7,0.9,1.4*35
$GPZDA,040253.02,27,02,1999,00,00*6B
$GPGRS,040253.00,1,-0.2,0.3,0.3,0.2,-0.6,0.2,-0.4,0.1,-0.1,,,*60

12:00:50  $GPGGA,040254.00,3643.98340552,N,12304.48793600,E,2,09,0.9,5.353,M,8.625,M,8.4,0612*73
$GPGSV,3,1,09,05,59,285,44,07,12,082,44,29,22,317,40,02,76,015,48*7B
$GPGSV,3,2,09,09,14,041,44,19,19,163,41,13,28,187,44,30,10,113,40*7A
$GPGSV,3,3,09,06,39,103,44,,,,,,,,,,,,*4E
$GPGSA,A,3,05,07,29,02,09,19,13,30,06,,,,1.7,0.9,1.4*35
$GPZDA,040254.02,27,02,1999,00,00*6C
$GPGRS,040254.00,1,-0.1,0.3,0.3,0.2,-0.5,0.3,-0.4,0.1,-0.1,,,*66

12:00:51  $GPGGA,040255.00,3643.98338492,N,12304.48788026,E,2,09,0.9,5.450,M,8.625,M,7.0,0612*77
$GPGSV,3,1,09,05,59,285,43,07,12,082,44,29,22,317,39,02,76,015,48*72
$GPGSV,3,2,09,09,14,041,44,19,19,163,40,13,28,187,44,30,10,113,39*75
$GPGSV,3,3,09,06,39,103,44,,,,,,,,,,,,*4E
$GPGSA,A,3,05,07,29,02,09,19,13,30,06,,,,1.7,0.9,1.4*35
$GPZDA,040255.02,27,02,1999,00,00*6D
$GPGRS,040255.00,1,-0.3,-0.3,0.3,0.3,-0.2,0.4,-0.5,0.3,0.0,,,*66

12:00:52  $GPGGA,040256.00,3643.98337307,N,12304.48782297,E,2,09,0.9,5.478,M,8.625,M,8.0,0612*77
$GPGSV,3,1,09,05,59,285,43,07,12,082,45,29,22,317,41,02,76,015,47*73
$GPGSV,3,2,09,09,14,041,44,19,19,163,40,13,28,187,44,30,10,113,39*75
$GPGSV,3,3,09,06,39,103,45,,,,,,,,,,,,*4F
$GPGSA,A,3,05,07,29,02,09,19,13,30,06,,,,1.7,0.9,1.4*35
$GPZDA,040256.02,27,02,1999,00,00*6E
$GPGRS,040256.00,1,-0.3,-0.4,0.3,0.3,-0.1,0.4,-0.5,0.3,0.0,,,*61

12:00:53  $GPGGA,040257.00,3643.98334632,N,12304.48778426,E,2,09,0.9,5.411,M,8.625,M,7.2,0612*7D
$GPGSV,3,1,09,05,59,285,43,07,12,082,45,29,22,317,41,02,76,015,48*7C
$GPGSV,3,2,09,09,14,041,44,19,19,163,40,13,28,187,44,30,10,113,39*75
$GPGSV,3,3,09,06,39,103,45,,,,,,,,,,,,*4F
$GPGSA,A,3,05,07,29,02,09,19,13,30,06,,,,1.7,0.9,1.4*35
$GPZDA,040257.02,27,02,1999,00,00*6F
$GPGRS,040257.00,1,-0.3,-0.5,0.2,0.3,0.0,0.3,-0.3,0.2,0.0,,,*4C

12:00:54  $GPGGA,040258.00,3643.98331763,N,12304.48779225,E,2,09,0.9,5.356,M,8.625,M,8.2,0612*7D
$GPGSV,3,1,09,05,59,285,43,07,12,082,44,29,22,317,40,02,76,015,48*7C
$GPGSV,3,2,09,09,14,041,44,19,19,163,40,13,28,187,44,30,10,113,39*75
$GPGSV,3,3,09,06,39,103,45,,,,,,,,,,,,*4F
$GPGSA,A,3,05,07,29,02,09,19,13,30,06,,,,1.7,0.9,1.4*35
$GPZDA,040258.02,27,02,1999,00,00*60
$GPGRS,040258.00,1,-0.3,-0.5,0.2,0.3,0.1,0.3,-0.2,0.2,0.0,,,*43

12:00:55  $GPGGA,040259.00,3643.98329360,N,12304.48779537,E,2,09,0.9,5.364,M,8.625,M,6.2,0612*79
$GPGSV,3,1,09,05,59,285,44,07,12,082,44,29,22,317,41,02,76,015,48*7A
$GPGSV,3,2,09,09,14,041,44,19,19,163,41,13,28,187,44,30,10,113,39*74
$GPGSV,3,3,09,06,39,103,44,,,,,,,,,,,,*4E
$GPGSA,A,3,05,07,29,02,09,19,13,30,06,,,,1.7,0.9,1.4*35
$GPZDA,040259.02,27,02,1999,00,00*61
$GPGRS,040259.00,1,-0.3,-0.6,0.1,0.2,0.2,0.3,-0.2,0.2,0.1,,,*41

12:00:56  $GPGGA,040300.00,3643.98328703,N,12304.48776813,E,2,09,0.9,5.426,M,8.625,M,7.2,0612*70
$GPGSV,3,1,09,05,59,285,44,07,12,082,44,29,22,317,38,02,76,016,48*77
$GPGSV,3,2,09,09,14,041,44,19,19,163,41,13,28,187,44,30,10,113,39*74
$GPGSV,3,3,09,06,39,103,44,,,,,,,,,,,,*4E
$GPGSA,A,3,05,07,29,02,09,19,13,30,06,,,,1.7,0.9,1.4*35
$GPZDA,040300.02,27,02,1999,00,00*6C
$GPGRS,040300.00,1,-0.3,-0.7,0.1,0.2,0.3,0.3,-0.2,0.1,0.1,,,*4F

12:00:57  $GPGGA,040301.00,3643.98329502,N,12304.48773835,E,2,09,0.9,5.346,M,8.625,M,6.4,0612*74
$GPGSV,3,1,09,05,59,285,43,07,12,082,45,29,22,317,38,02,76,016,47*7E
$GPGSV,3,2,09,09,14,041,44,19,19,163,40,13,28,187,44,30,10,113,40*7B
$GPGSV,3,3,09,06,39,103,45,,,,,,,,,,,,*4F
$GPGSA,A,3,05,07,29,02,09,19,13,30,06,,,,1.7,0.9,1.4*35
$GPZDA,040301.02,27,02,1999,00,00*6D
$GPGRS,040301.00,1,-0.2,-0.4,-0.0,0.3,0.3,0.4,-0.2,0.1,-0.1,,,*4B

12:00:58  $GPGGA,040302.00,3643.98329535,N,12304.48773668,E,2,09,0.9,5.290,M,8.625,M,7.4,0612*7E
$GPGSV,3,1,09,05,59,285,44,07,12,082,45,29,22,317,41,02,76,016,47*77
$GPGSV,3,2,09,09,14,041,43,19,19,163,41,13,28,187,44,30,10,113,40*7D
$GPGSV,3,3,09,06,39,103,45,,,,,,,,,,,,*4F
$GPGSA,A,3,05,07,29,02,09,19,13,30,06,,,,1.7,0.9,1.4*35
$GPZDA,040302.02,27,02,1999,00,00*6E
$GPGRS,040302.00,1,-0.2,-0.4,-0.0,0.3,0.4,0.4,-0.2,0.0,-0.1,,,*4E

12:00:59  $GPGGA,040303.00,3643.98326825,N,12304.48774277,E,2,09,0.9,5.389,M,8.625,M,6.0,0612*7D
$GPGSV,3,1,09,05,59,285,44,07,12,082,44,29,22,317,41,02,76,016,47*76
$GPGSV,3,2,09,09,14,041,43,19,19,163,40,13,28,187,43,30,10,113,40*7B
$GPGSV,3,3,09,06,39,103,44,,,,,,,,,,,,*4E
$GPGSA,A,3,05,07,29,02,09,19,13,30,06,,,,1.7,0.9,1.4*35
$GPZDA,040303.02,27,02,1999,00,00*6F
$GPGRS,040303.00,1,-0.2,-0.2,0.2,0.3,-0.2,0.4,-0.5,0.2,-0.1,,,*48

12:01:00  $GPGGA,040304.00,3643.98324662,N,12304.48773614,E,2,09,0.9,5.420,M,8.625,M,7.0,0612*76
$GPGSV,3,1,09,05,59,285,44,07,12,082,44,29,22,317,40,02,76,016,48*78
$GPGSV,3,2,09,09,14,041,43,19,19,163,40,13,28,187,44,30,10,113,39*72
$GPGSV,3,3,09,06,39,103,45,,,,,,,,,,,,*4F
$GPGSA,A,3,05,07,29,02,09,19,13,30,06,,,,1.7,0.9,1.4*35
$GPZDA,040304.02,27,02,1999,00,00*68
$GPGRS,040304.00,1,-0.2,-0.2,0.2,0.3,-0.2,0.4,-0.5,0.2,-0.1,,,*4F

12:01:01  $GPGGA,040305.00,3643.98324567,N,12304.48770538,E,2,09,0.9,5.255,M,8.625,M,6.2,0612*78
$GPGSV,3,1,09,05,59,285,44,07,12,082,44,29,22,317,40,02,76,016,48*78
$GPGSV,3,2,09,09,14,041,43,19,19,163,40,13,28,187,43,30,10,113,39*75
$GPGSV,3,3,09,06,39,103,45,,,,,,,,,,,,*4F
$GPGSA,A,3,05,07,29,02,09,19,13,30,06,,,,1.7,0.9,1.4*35
$GPZDA,040305.02,27,02,1999,00,00*69
$GPGRS,040305.00,1,-0.3,-0.4,0.4,0.3,-0.4,0.3,-0.6,0.6,-0.0,,,*48

12:01:02  $GPGGA,040306.00,3643.98325258,N,12304.48766745,E,2,09,0.9,5.197,M,8.625,M,7.2,0612*72
$GPGSV,3,1,09,05,59,285,44,07,12,082,45,29,22,317,37,02,76,016,48*79
$GPGSV,3,2,09,09,14,041,43,19,19,163,41,13,28,187,43,30,10,113,40*7A
$GPGSV,3,3,09,06,39,103,44,,,,,,,,,,,,*4E
$GPGSA,A,3,05,07,29,02,09,19,13,30,06,,,,1.7,0.9,1.4*35
$GPZDA,040306.02,27,02,1999,00,00*6A
$GPGRS,040306.00,1,-0.3,-0.4,0.4,0.3,-0.4,0.3,-0.7,0.6,-0.0,,,*4A

12:01:03  $GPGGA,040307.00,3643.98326703,N,12304.48758714,E,2,09,0.9,5.114,M,8.625,M,6.4,0612*7E
$GPGSV,3,1,09,05,59,285,44,07,12,082,45,29,22,317,37,02,76,016,48*79
$GPGSV,3,2,09,09,14,041,43,19,19,163,40,13,28,187,43,30,10,113,40*7B
$GPGSV,3,3,09,06,39,103,45,,,,,,,,,,,,*4F
$GPGSA,A,3,05,07,29,02,09,19,13,30,06,,,,1.7,0.9,1.4*35
$GPZDA,040307.02,27,02,1999,00,00*6B
$GPGRS,040307.00,1,-0.1,-0.3,0.3,0.3,-0.4,0.3,-0.7,0.7,-0.1,,,*49

12:01:04  $GPGGA,040308.00,3643.98327053,N,12304.48753884,E,2,09,0.9,4.961,M,8.625,M,7.4,0612*75
$GPGSV,3,1,09,05,59,285,43,07,12,082,44,29,22,317,38,02,76,016,48*70
$GPGSV,3,2,09,09,14,041,44,19,19,163,40,13,28,187,44,30,10,113,39*75
$GPGSV,3,3,09,06,39,103,45,,,,,,,,,,,,*4F
$GPGSA,A,3,05,07,29,02,09,19,13,30,06,,,,1.7,0.9,1.4*35
$GPZDA,040308.02,27,02,1999,00,00*64
$GPGRS,040308.00,1,-0.1,-0.3,0.4,0.3,-0.5,0.3,-0.7,0.7,-0.1,,,*40

12:01:05  $GPGGA,040309.00,3643.98330547,N,12304.48753683,E,2,09,0.9,4.837,M,8.625,M,6.0,0612*7C
$GPGSV,3,1,09,05,59,285,43,07,12,082,45,29,22,317,39,02,76,016,48*70
$GPGSV,3,2,09,09,14,041,44,19,19,163,40,13,28,187,44,30,10,113,39*75
$GPGSV,3,3,09,06,39,103,44,,,,,,,,,,,,*4E
$GPGSA,A,3,05,07,29,02,09,19,13,30,06,,,,1.7,0.9,1.4*35
$GPZDA,040309.02,27,02,1999,00,00*65
$GPGRS,040309.00,1,-0.1,-0.6,0.2,0.3,-0.1,0.5,-0.7,0.7,-0.1,,,*40

12:01:06  $GPGGA,040310.00,3643.98333599,N,12304.48752229,E,2,09,0.9,4.689,M,8.625,M,7.0,0612*7B
$GPGSV,3,1,09,05,59,285,43,07,12,082,44,29,22,317,41,02,76,016,47*71
$GPGSV,3,2,09,09,14,041,44,19,19,163,40,13,28,187,43,30,10,113,39*72
$GPGSV,3,3,09,06,39,103,45,,,,,,,,,,,,*4F
$GPGSA,A,3,05,07,29,02,09,19,13,30,06,,,,1.7,0.9,1.4*35
$GPZDA,040310.02,27,02,1999,00,00*6D
$GPGRS,040310.00,1,-0.1,-0.6,0.2,0.3,-0.1,0.5,-0.8,0.7,-0.1,,,*47

12:01:07  $GPGGA,040311.00,3643.98335722,N,12304.48751631,E,2,09,0.9,4.657,M,8.625,M,6.2,0612*70
$GPGSV,3,1,09,05,59,285,43,07,12,082,44,29,22,317,41,02,76,016,48*7E
$GPGSV,3,2,09,09,14,041,44,19,19,163,40,13,28,187,43,30,10,113,38*73
$GPGSV,3,3,09,06,39,103,44,,,,,,,,,,,,*4E
$GPGSA,A,3,05,07,29,02,09,19,13,30,06,,,,1.7,0.9,1.4*35
$GPZDA,040311.02,27,02,1999,00,00*6C
$GPGRS,040311.00,1,-0.1,-0.6,0.2,0.3,-0.0,0.6,-0.7,0.5,-0.2,,,*4A

12:01:08  $GPGGA,040312.00,3643.98337123,N,12304.48750136,E,2,09,0.9,4.727,M,8.625,M,7.2,0612*70
$GPGSV,3,1,09,05,59,285,43,07,12,082,45,29,22,317,41,02,76,016,48*7F
$GPGSV,3,2,09,09,14,041,44,19,19,163,40,13,28,187,44,30,10,113,39*75
$GPGSV,3,3,09,06,39,103,45,,,,,,,,,,,,*4F
$GPGSA,A,3,05,07,29,02,09,19,13,30,06,,,,1.7,0.9,1.4*35
$GPZDA,040312.02,27,02,1999,00,00*6F
$GPGRS,040312.00,1,-0.1,-0.7,0.2,0.3,-0.0,0.6,-0.8,0.6,-0.2,,,*44

12:01:09  $GPGGA,040313.00,3643.98339842,N,12304.48753396,E,2,09,0.9,4.678,M,8.625,M,6.4,0612*76
$GPGSV,3,1,09,05,59,285,43,07,12,082,45,29,22,317,39,02,76,016,48*70
$GPGSV,3,2,09,09,14,041,44,19,19,163,40,13,28,187,43,30,10,113,39*72
$GPGSV,3,3,09,06,39,103,45,,,,,,,,,,,,*4F
$GPGSA,A,3,05,07,29,02,09,19,13,30,06,,,,1.7,0.9,1.4*35
$GPZDA,040313.02,27,02,1999,00,00*6E
$GPGRS,040313.00,1,-0.1,-0.2,0.2,0.3,-0.3,0.6,-0.8,0.4,-0.2,,,*41

12:01:10  $GPGGA,040314.00,3643.98342026,N,12304.48757345,E,2,09,0.9,4.599,M,8.625,M,7.4,0612*70
$GPGSV,3,1,09,05,59,285,44,07,12,082,44,29,22,317,41,02,76,016,48*79
$GPGSV,3,2,09,09,14,041,43,19,19,163,40,13,28,187,44,30,10,113,38*73
$GPGSV,3,3,09,06,39,103,44,,,,,,,,,,,,*4E
$GPGSA,A,3,05,07,29,02,09,19,13,30,06,,,,1.7,0.9,1.4*35
$GPZDA,040314.02,27,02,1999,00,00*69
$GPGRS,040314.00,1,-0.1,-0.2,0.2,0.3,-0.3,0.6,-0.8,0.4,-0.1,,,*45

12:01:11  $GPGGA,040315.00,3643.98344368,N,12304.48760128,E,2,09,0.9,4.594,M,8.625,M,8.4,0612*71
$GPGSV,3,1,09,05,59,285,44,07,12,082,44,29,22,317,40,02,76,016,48*78
$GPGSV,3,2,09,09,14,041,43,19,19,163,40,13,28,187,44,30,10,113,38*73
$GPGSV,3,3,09,06,39,103,44,,,,,,,,,,,,*4E
$GPGSA,A,3,05,07,29,02,09,19,13,30,06,,,,1.7,0.9,1.4*35
$GPZDA,040315.02,27,02,1999,00,00*68
$GPGRS,040315.00,1,-0.1,-0.2,0.2,0.3,-0.3,0.6,-0.8,0.4,-0.1,,,*44

12:01:12  $GPGGA,040316.00,3643.98344215,N,12304.48756324,E,2,09,0.9,4.586,M,8.625,M,7.0,0612*7A
$GPGSV,3,1,09,05,59,285,44,07,12,082,44,29,22,317,38,02,76,016,49*76
$GPGSV,3,2,09,09,14,041,43,19,19,163,40,13,28,187,44,30,10,113,39*72
$GPGSV,3,3,09,06,39,103,45,,,,,,,,,,,,*4F
$GPGSA,A,3,05,07,29,02,09,19,13,30,06,,,,1.7,0.9,1.4*35
$GPZDA,040316.02,27,02,1999,00,00*6B
$GPGRS,040316.00,1,-0.2,-0.2,0.3,0.3,-0.3,0.3,-0.5,0.4,-0.1,,,*4D

12:01:13  $GPGGA,040317.00,3643.98344042,N,12304.48751109,E,2,09,0.9,4.479,M,8.625,M,8.0,0612*7F
$GPGSV,3,1,09,05,59,285,44,07,12,082,45,29,22,317,41,02,76,016,48*78
$GPGSV,3,2,09,09,14,041,44,19,19,163,40,13,28,187,44,30,10,113,39*75
$GPGSV,3,3,09,06,39,103,45,,,,,,,,,,,,*4F
$GPGSA,A,3,05,07,29,02,09,19,13,30,06,,,,1.7,0.9,1.4*35
$GPZDA,040317.02,27,02,1999,00,00*6A
$GPGRS,040317.00,1,-0.2,-0.2,0.3,0.4,-0.3,0.3,-0.5,0.4,-0.1,,,*4B

12:01:14  $GPGGA,040318.00,3643.98340885,N,12304.48757960,E,2,09,0.9,4.619,M,8.625,M,7.2,0612*7F
$GPGSV,3,1,09,05,59,285,44,07,12,082,45,29,22,317,41,02,76,016,48*78
$GPGSV,3,2,09,09,14,041,43,19,19,163,40,13,28,187,44,30,10,113,39*72
$GPGSV,3,3,09,06,39,103,45,,,,,,,,,,,,*4F
$GPGSA,A,3,05,07,29,02,09,19,13,30,06,,,,1.7,0.9,1.4*35
$GPZDA,040318.02,27,02,1999,00,00*65
$GPGRS,040318.00,1,-0.2,-0.2,0.2,0.4,-0.2,0.3,-0.5,0.4,-0.4,,,*41

12:01:15  $GPGGA,040319.00,3643.98338050,N,12304.48765661,E,2,09,0.9,4.729,M,8.625,M,8.2,0612*73
$GPGSV,3,1,09,05,59,285,44,07,12,082,45,29,22,317,40,02,76,016,48*79
$GPGSV,3,2,09,09,14,041,43,19,19,163,40,13,28,187,44,30,10,113,39*72
$GPGSV,3,3,09,06,39,103,45,,,,,,,,,,,,*4F
$GPGSA,A,3,05,07,29,02,09,19,13,30,06,,,,1.7,0.9,1.4*35
$GPZDA,040319.02,27,02,1999,00,00*64
$GPGRS,040319.00,1,-0.2,-0.2,0.2,0.5,-0.2,0.3,-0.5,0.5,-0.4,,,*40

12:01:16  $GPGGA,040320.00,3643.98336910,N,12304.48769826,E,2,09,0.9,4.847,M,8.625,M,6.2,0612*72
$GPGSV,3,1,09,05,59,285,44,07,12,082,44,29,22,317,41,02,76,016,48*79
$GPGSV,3,2,09,09,14,041,43,19,18,163,41,13,28,187,45,30,10,113,38*72
$GPGSV,3,3,09,06,39,103,45,,,,,,,,,,,,*4F
$GPGSA,A,3,05,07,29,02,09,19,13,30,06,,,,1.7,0.9,1.4*35
$GPZDA,040320.02,27,02,1999,00,00*6E
$GPGRS,040320.00,1,-0.0,-0.1,0.1,0.4,-0.3,0.3,-0.5,0.5,-0.4,,,*48

12:01:17  $GPGGA,040321.00,3643.98336913,N,12304.48769968,E,2,09,0.9,4.968,M,8.625,M,7.2,0612*76
$GPGSV,3,1,09,05,59,285,43,07,12,082,44,29,22,317,40,02,76,016,48*7F
$GPGSV,3,2,09,09,14,041,43,19,18,163,41,13,28,187,44,30,10,113,39*72
$GPGSV,3,3,09,06,39,103,45,,,,,,,,,,,,*4F
$GPGSA,A,3,05,07,29,02,09,19,13,30,06,,,,1.7,0.9,1.4*35
$GPZDA,040321.02,27,02,1999,00,00*6F
$GPGRS,040321.00,1,0.0,-0.0,0.1,0.4,-0.3,0.3,-0.6,0.5,-0.4,,,*66

12:01:18  $GPGGA,040322.00,3643.98343068,N,12304.48772695,E,2,09,0.9,5.191,M,8.625,M,6.4,0612*7D
$GPGSV,3,1,09,05,59,285,43,07,12,082,45,29,22,317,40,02,76,016,48*7E
$GPGSV,3,2,09,09,14,041,44,19,18,163,40,13,28,187,44,30,10,113,38*75
$GPGSV,3,3,09,06,39,103,45,,,,,,,,,,,,*4F
$GPGSA,A,3,05,07,29,02,09,19,13,30,06,,,,1.7,0.9,1.4*35
$GPZDA,040322.02,27,02,1999,00,00*6C
$GPGRS,040322.00,1,0.1,0.1,0.3,0.3,-0.6,0.2,-0.7,0.8,-0.4,,,*45

12:01:19  $GPGGA,040323.00,3643.98347450,N,12304.48777617,E,2,09,0.9,5.297,M,8.625,M,7.4,0612*7C
$GPGSV,3,1,09,05,59,285,44,07,12,082,44,29,22,317,41,02,76,016,48*79
$GPGSV,3,2,09,09,14,041,44,19,18,163,40,13,28,187,43,30,10,113,39*73
$GPGSV,3,3,09,06,39,103,44,,,,,,,,,,,,*4E
$GPGSA,A,3,05,07,29,02,09,19,13,30,06,,,,1.7,0.9,1.4*35
$GPZDA,040323.02,27,02,1999,00,00*6D
$GPGRS,040323.00,1,0.1,0.1,0.3,0.3,-0.7,0.2,-0.7,0.8,-0.4,,,*45

12:01:20  $GPGGA,040324.00,3643.98353062,N,12304.48773634,E,2,09,0.9,5.240,M,8.625,M,6.0,0612*71
$GPGSV,3,1,09,05,59,285,44,07,12,082,44,29,22,317,41,02,76,016,48*79
$GPGSV,3,2,09,09,14,041,44,19,18,163,40,13,28,187,42,30,10,113,39*72
$GPGSV,3,3,09,06,39,103,45,,,,,,,,,,,,*4F
$GPGSA,A,3,05,07,29,02,09,19,13,30,06,,,,1.7,0.9,1.4*35
$GPZDA,040324.02,27,02,1999,00,00*6A
$GPGRS,040324.00,1,0.1,0.4,0.3,0.1,-0.7,0.3,-0.7,0.3,-0.1,,,*4A

12:01:21  $GPGGA,040325.00,3643.98357724,N,12304.48768639,E,2,09,0.9,5.217,M,8.625,M,7.0,0612*75
$GPGSV,3,1,09,05,59,285,44,07,12,082,44,29,22,317,39,02,76,016,48*76
$GPGSV,3,2,09,09,14,041,44,19,18,163,40,13,28,187,43,30,10,113,38*72
$GPGSV,3,3,09,06,39,103,44,,,,,,,,,,,,*4E
$GPGSA,A,3,05,07,29,02,09,19,13,30,06,,,,1.7,0.9,1.4*35
$GPZDA,040325.02,27,02,1999,00,00*6B
$GPGRS,040325.00,1,0.1,0.4,0.3,0.1,-0.8,0.3,-0.7,0.3,-0.1,,,*44

12:01:22  $GPGGA,040326.00,3643.98359224,N,12304.48760086,E,2,09,0.9,5.132,M,8.625,M,6.2,0612*70
$GPGSV,3,1,09,05,59,285,44,07,12,082,44,29,22,317,38,02,76,016,48*77
$GPGSV,3,2,09,09,14,041,44,19,18,163,40,13,28,187,43,30,10,113,38*72
$GPGSV,3,3,09,06,39,103,45,,,,,,,,,,,,*4F
$GPGSA,A,3,05,07,29,02,09,19,13,30,06,,,,1.7,0.9,1.4*35
$GPZDA,040326.02,27,02,1999,00,00*68
$GPGRS,040326.00,1,-0.1,-0.2,0.4,0.2,-0.5,0.4,-0.8,0.6,-0.0,,,*44

12:01:23  $GPGGA,040327.00,3643.98361208,N,12304.48751467,E,2,09,0.9,5.053,M,8.625,M,7.2,0612*7A
$GPGSV,3,1,09,05,59,285,44,07,12,082,44,29,22,317,41,02,76,016,48*79
$GPGSV,3,2,09,09,14,041,44,19,18,163,40,13,28,187,44,30,10,113,39*74
$GPGSV,3,3,09,06,39,103,45,,,,,,,,,,,,*4F
$GPGSA,A,3,05,07,29,02,09,19,13,30,06,,,,1.7,0.9,1.4*35
$GPZDA,040327.02,27,02,1999,00,00*69
$GPGRS,040327.00,1,-0.1,-0.2,0.4,0.3,-0.6,0.4,-0.8,0.6,-0.0,,,*47

12:01:24  $GPGGA,040328.00,3643.98360275,N,12304.48741308,E,2,09,0.9,4.949,M,8.625,M,6.4,0612*75
$GPGSV,3,1,09,05,59,285,44,07,12,082,44,29,22,317,41,02,76,016,48*79
$GPGSV,3,2,09,09,14,041,44,19,18,163,40,13,28,187,43,30,10,113,39*73
$GPGSV,3,3,09,06,39,103,44,,,,,,,,,,,,*4E
$GPGSA,A,3,05,07,29,02,09,19,13,30,06,,,,1.7,0.9,1.4*35
$GPZDA,040328.02,27,02,1999,00,00*66
$GPGRS,040328.00,1,-0.2,-0.2,0.3,0.3,-0.3,0.3,-0.5,0.5,-0.0,,,*40

12:01:25  $GPGGA,040329.00,3643.98359065,N,12304.48735337,E,2,09,0.9,4.815,M,8.625,M,7.4,0612*7B
$GPGSV,3,1,09,05,59,285,44,07,12,082,44,29,22,317,41,02,76,016,48*79
$GPGSV,3,2,09,09,14,041,44,19,18,163,40,13,28,187,44,30,10,113,40*7A
$GPGSV,3,3,09,06,39,103,44,,,,,,,,,,,,*4E
$GPGSA,A,3,05,07,29,02,09,19,13,30,06,,,,1.7,0.9,1.4*35
$GPZDA,040329.02,27,02,1999,00,00*67
$GPGRS,040329.00,1,-0.2,-0.3,0.3,0.3,-0.3,0.3,-0.6,0.5,-0.0,,,*43

12:01:26  $GPGGA,040330.00,3643.98357224,N,12304.48735163,E,2,09,0.9,4.893,M,8.625,M,6.0,0612*72
$GPGSV,3,1,09,05,59,285,44,07,12,082,44,29,22,317,41,02,76,016,48*79
$GPGSV,3,2,09,09,14,041,44,19,18,163,39,13,28,187,44,30,10,113,40*74
$GPGSV,3,3,09,06,39,103,45,,,,,,,,,,,,*4F
$GPGSA,A,3,05,07,29,02,09,19,13,30,06,,,,1.7,0.9,1.4*35
$GPZDA,040330.02,27,02,1999,00,00*6F
$GPGRS,040330.00,1,-0.2,-0.2,0.2,0.3,-0.2,0.4,-0.5,0.2,-0.1,,,*48

12:01:27  $GPGGA,040331.00,3643.98356651,N,12304.48734395,E,2,09,0.9,4.966,M,8.625,M,7.0,0612*74
$GPGSV,3,1,09,05,59,285,44,07,12,082,44,29,22,317,42,02,76,016,48*7A
$GPGSV,3,2,09,09,14,041,44,19,18,163,39,13,28,187,43,30,10,113,40*73
$GPGSV,3,3,09,06,39,103,44,,,,,,,,,,,,*4E
$GPGSA,A,3,05,07,29,02,09,19,13,30,06,,,,1.7,0.9,1.4*35
$GPZDA,040331.02,27,02,1999,00,00*6E
$GPGRS,040331.00,1,-0.2,-0.2,0.2,0.3,-0.2,0.4,-0.5,0.2,-0.1,,,*49

12:01:28  $GPGGA,040332.00,3643.98357302,N,12304.48736081,E,2,09,0.9,5.125,M,8.625,M,6.2,0612*7C
$GPGSV,3,1,09,05,59,285,44,07,12,082,44,29,22,317,41,02,76,016,48*79
$GPGSV,3,2,09,09,14,041,43,19,18,163,39,13,28,187,43,30,10,113,39*7A
$GPGSV,3,3,09,06,39,103,44,,,,,,,,,,,,*4E
$GPGSA,A,3,05,07,29,02,09,19,13,30,06,,,,1.7,0.9,1.4*35
$GPZDA,040332.02,27,02,1999,00,00*6D
$GPGRS,040332.00,1,-0.2,-0.1,0.3,0.2,-0.3,0.4,-0.5,0.1,0.1,,,*66

12:01:29  $GPGGA,040333.00,3643.98357624,N,12304.48736014,E,2,09,0.9,5.246,M,8.625,M,7.2,0612*77
$GPGSV,3,1,09,05,59,285,43,07,12,082,45,29,22,317,39,02,76,016,48*70
$GPGSV,3,2,09,09,14,041,44,19,18,163,39,13,28,187,43,30,10,113,40*73
$GPGSV,3,3,09,06,39,103,44,,,,,,,,,,,,*4E
$GPGSA,A,3,05,07,29,02,09,19,13,30,06,,,,1.7,0.9,1.4*35
$GPZDA,040333.02,27,02,1999,00,00*6C
$GPGRS,040333.00,1,-0.2,-0.1,0.3,0.2,-0.3,0.4,-0.5,0.1,0.1,,,*67

12:01:30  $GPGGA,040334.00,3643.98357756,N,12304.48736564,E,2,09,0.9,5.174,M,8.625,M,6.4,0612*73
$GPGSV,3,1,09,05,59,285,44,07,12,082,45,29,22,317,42,02,76,016,48*7B
$GPGSV,3,2,09,09,14,041,44,19,18,163,39,13,28,187,43,30,10,113,40*73
$GPGSV,3,3,09,06,39,103,45,,,,,,,,,,,,*4F
$GPGSA,A,3,05,07,29,02,09,19,13,30,06,,,,1.7,0.9,1.4*35
$GPZDA,040334.02,27,02,1999,00,00*6B
$GPGRS,040334.00,1,-0.3,-0.2,0.1,0.2,0.0,0.3,-0.2,-0.1,0.1,,,*63

12:01:31  $GPGGA,040335.00,3643.98357686,N,12304.48738835,E,2,09,0.9,5.185,M,8.625,M,7.4,0612*76
$GPGSV,3,1,09,05,59,285,44,07,12,082,45,29,22,317,42,02,76,016,48*7B
$GPGSV,3,2,09,09,14,041,44,19,18,163,41,13,28,187,43,30,10,113,40*7C
$GPGSV,3,3,09,06,39,103,45,,,,,,,,,,,,*4F
$GPGSA,A,3,05,07,29,02,09,19,13,30,06,,,,1.7,0.9,1.4*35
$GPZDA,040335.02,27,02,1999,00,00*6A
$GPGRS,040335.00,1,-0.3,-0.2,0.1,0.2,0.0,0.3,-0.2,-0.1,0.1,,,*62

12:01:32  $GPGGA,040336.00,3643.98358499,N,12304.48738328,E,2,09,0.9,5.217,M,8.625,M,8.4,0612*76
$GPGSV,3,1,09,05,59,285,44,07,12,082,44,29,22,317,37,02,76,017,48*79
$GPGSV,3,2,09,09,14,041,44,19,18,163,40,13,28,187,42,30,10,113,39*72
$GPGSV,3,3,09,06,39,103,45,,,,,,,,,,,,*4F
$GPGSA,A,3,05,07,29,02,09,19,13,30,06,,,,1.7,0.9,1.4*35
$GPZDA,040336.02,27,02,1999,00,00*69
$GPGRS,040336.00,1,-0.3,-0.2,0.1,0.1,0.0,0.3,-0.1,-0.1,0.1,,,*61

12:01:33  $GPGGA,040337.00,3643.98359504,N,12304.48736844,E,2,09,0.9,5.263,M,8.625,M,7.0,0612*74
$GPGSV,3,1,09,05,59,285,43,07,12,082,44,29,22,317,41,02,76,017,48*7F
$GPGSV,3,2,09,09,14,041,43,19,18,163,41,13,28,187,43,30,10,113,39*75
$GPGSV,3,3,09,06,39,103,44,,,,,,,,,,,,*4E
$GPGSA,A,3,05,07,29,02,09,19,13,30,06,,,,1.7,0.9,1.4*35
$GPZDA,040337.02,27,02,1999,00,00*68
$GPGRS,040337.00,1,-0.4,-0.2,0.2,0.2,0.0,0.3,-0.1,-0.1,0.1,,,*67

12:01:34  $GPGGA,040338.00,3643.98360588,N,12304.48734798,E,2,09,0.9,5.301,M,8.625,M,8.0,0612*73
$GPGSV,3,1,09,05,59,285,43,07,12,082,43,29,22,317,40,02,76,017,48*79
$GPGSV,3,2,09,09,14,041,43,19,18,163,40,13,28,187,44,30,11,113,40*7C
$GPGSV,3,3,09,06,39,103,44,,,,,,,,,,,,*4E
$GPGSA,A,3,05,07,29,02,09,19,13,30,06,,,,1.7,0.9,1.4*35
$GPZDA,040338.02,27,02,1999,00,00*67
$GPGRS,040338.00,1,-0.4,-0.2,0.2,0.2,0.0,0.3,-0.1,-0.2,0.2,,,*68

12:01:35  $GPGGA,040339.00,3643.98359875,N,12304.48722595,E,2,09,0.9,5.157,M,8.625,M,7.2,0612*73
$GPGSV,3,1,09,05,59,285,43,07,12,082,44,29,22,317,39,02,76,017,48*70
$GPGSV,3,2,09,09,14,041,43,19,18,163,40,13,28,187,43,30,11,113,41*7A
$GPGSV,3,3,09,06,39,103,44,,,,,,,,,,,,*4E
$GPGSA,A,3,05,07,29,02,09,19,13,30,06,,,,1.7,0.9,1.4*35
$GPZDA,040339.02,27,02,1999,00,00*66
$GPGRS,040339.00,1,-0.6,-0.6,0.1,0.6,0.4,0.4,-0.1,0.1,-0.2,,,*68

12:01:36  $GPGGA,040340.00,3643.98358526,N,12304.48713484,E,2,09,0.9,4.998,M,8.625,M,8.2,0612*71
$GPGSV,3,1,09,05,59,285,43,07,12,082,44,29,22,317,41,02,76,017,48*7F
$GPGSV,3,2,09,09,14,041,43,19,18,163,41,13,28,187,43,30,11,113,40*7A
$GPGSV,3,3,09,06,39,103,44,,,,,,,,,,,,*4E
$GPGSA,A,3,05,07,29,02,09,19,13,30,06,,,,1.7,0.9,1.4*35
$GPZDA,040340.02,27,02,1999,00,00*68
$GPGRS,040340.00,1,-0.6,-0.6,0.1,0.6,0.4,0.4,-0.0,0.2,-0.2,,,*64

12:01:37  $GPGGA,040341.00,3643.98359364,N,12304.48709333,E,2,09,0.9,4.932,M,8.625,M,6.2,0612*7F
$GPGSV,3,1,09,05,59,285,42,07,12,082,44,29,22,317,41,02,76,017,48*7E
$GPGSV,3,2,09,09,14,041,43,19,18,163,40,13,28,187,43,30,11,113,39*75
$GPGSV,3,3,09,06,39,103,44,,,,,,,,,,,,*4E
$GPGSA,A,3,05,07,29,02,09,19,13,30,06,,,,1.7,0.9,1.4*35
$GPZDA,040341.02,27,02,1999,00,00*69
$GPGRS,040341.00,1,-0.6,-0.6,0.1,0.6,0.3,0.2,0.0,0.2,-0.2,,,*49

12:01:38  $GPGGA,040342.00,3643.98360684,N,12304.48705761,E,2,09,0.9,4.955,M,8.625,M,7.2,0612*72
$GPGSV,3,1,09,05,59,285,43,07,12,082,44,29,22,317,38,02,76,017,48*71
$GPGSV,3,2,09,09,14,041,43,19,18,163,41,13,28,187,43,30,11,113,40*7A
$GPGSV,3,3,09,06,39,103,44,,,,,,,,,,,,*4E
$GPGSA,A,3,05,07,29,02,09,19,13,30,06,,,,1.7,0.9,1.4*35
$GPZDA,040342.02,27,02,1999,00,00*6A
$GPGRS,040342.00,1,-0.7,-0.7,0.1,0.7,0.4,0.2,0.0,0.2,-0.2,,,*4C

12:01:39  $GPGGA,040343.00,3643.98360477,N,12304.48704191,E,2,08,1.3,4.983,M,8.625,M,6.4,0612*73
$GPGSV,3,1,09,05,59,285,43,07,12,082,44,29,22,317,37,02,76,017,48*7E
$GPGSV,3,2,09,09,14,041,43,19,18,163,40,13,28,187,43,30,11,113,40*7B
$GPGSV,3,3,09,06,39,103,44,,,,,,,,,,,,*4E
$GPGSA,A,3,05,07,02,09,19,13,30,06,,,,,2.3,1.3,1.9*3F
$GPZDA,040343.02,27,02,1999,00,00*6B
$GPGRS,040343.00,1,-0.6,-0.9,0.6,0.4,0.2,0.0,0.4,-0.4,,,,*6C

12:01:40  $GPGGA,040344.00,3643.98361505,N,12304.48700564,E,2,09,0.9,4.891,M,8.625,M,7.4,0612*72
$GPGSV,3,1,09,05,59,285,43,07,12,082,44,29,22,317,41,02,76,017,48*7F
$GPGSV,3,2,09,09,14,040,44,19,18,163,41,13,28,187,43,30,11,113,39*72
$GPGSV,3,3,09,06,39,103,44,,,,,,,,,,,,*4E
$GPGSA,A,3,05,07,29,02,09,19,13,30,06,,,,1.7,0.9,1.4*35
$GPZDA,040344.02,27,02,1999,00,00*6C
$GPGRS,040344.00,1,-0.7,-0.9,0.0,0.7,0.4,0.2,0.0,0.4,-0.4,,,*45

12:01:41  $GPGGA,040345.00,3643.98364040,N,12304.48709832,E,2,09,0.9,5.002,M,8.625,M,6.0,0612*73
$GPGSV,3,1,09,05,59,285,43,07,12,082,44,29,22,317,41,02,76,017,48*7F
$GPGSV,3,2,09,09,14,040,44,19,18,163,40,13,28,187,44,30,11,113,39*74
$GPGSV,3,3,09,06,39,103,44,,,,,,,,,,,,*4E
$GPGSA,A,3,05,07,29,02,09,19,13,30,06,,,,1.7,0.9,1.4*35
$GPZDA,040345.02,27,02,1999,00,00*6D
$GPGRS,040345.00,1,-0.3,-0.2,0.1,0.3,0.1,0.0,0.1,0.1,-0.1,,,*48

12:01:42  $GPGGA,040346.00,3643.98365661,N,12304.48716725,E,2,09,0.9,5.128,M,8.625,M,7.0,0612*7B
$GPGSV,3,1,09,05,59,285,43,07,12,082,44,29,22,317,38,02,76,017,49*70
$GPGSV,3,2,09,09,13,040,44,19,18,163,40,13,28,187,44,30,11,113,39*73
$GPGSV,3,3,09,06,39,103,44,,,,,,,,,,,,*4E
$GPGSA,A,3,05,07,29,02,09,19,13,30,06,,,,1.7,0.9,1.4*35
$GPZDA,040346.02,27,02,1999,00,00*6E
$GPGRS,040346.00,1,-0.3,-0.2,0.0,0.3,0.1,0.0,0.1,0.1,-0.1,,,*4A

12:01:43  $GPGGA,040347.00,3643.98370381,N,12304.48722775,E,2,09,0.9,5.445,M,8.625,M,6.2,0612*7A
$GPGSV,3,1,09,05,59,285,43,07,12,082,45,29,22,317,41,02,76,017,49*7F
$GPGSV,3,2,09,09,13,040,44,19,18,163,40,13,28,187,43,30,11,113,39*74
$GPGSV,3,3,09,06,39,103,44,,,,,,,,,,,,*4E
$GPGSA,A,3,05,07,29,02,09,19,13,30,06,,,,1.7,0.9,1.4*35
$GPZDA,040347.02,27,02,1999,00,00*6F
$GPGRS,040347.00,1,-0.2,0.1,0.3,0.3,-0.5,-0.3,-0.0,0.5,-0.0,,,*49

12:01:44  $GPGGA,040348.00,3643.98376411,N,12304.48725421,E,2,09,0.9,5.676,M,8.625,M,7.2,0612*7B
$GPGSV,3,1,09,05,59,285,44,07,12,082,45,29,22,317,39,02,76,017,49*77
$GPGSV,3,2,09,09,13,040,44,19,18,163,40,13,28,187,43,30,11,113,40*7A
$GPGSV,3,3,09,06,39,103,44,,,,,,,,,,,,*4E
$GPGSA,A,3,05,07,29,02,09,19,13,30,06,,,,1.7,0.9,1.4*35
$GPZDA,040348.02,27,02,1999,00,00*60
$GPGRS,040348.00,1,-0.2,0.1,0.4,0.3,-0.5,-0.3,-0.0,0.5,-0.0,,,*41

12:01:45  $GPGGA,040349.00,3643.98383559,N,12304.48721779,E,2,09,0.9,5.702,M,8.625,M,6.4,0612*72
$GPGSV,3,1,09,05,59,285,44,07,12,082,45,29,22,317,40,02,76,017,49*79
$GPGSV,3,2,09,09,13,040,43,19,18,163,40,13,28,187,43,30,11,113,39*73
$GPGSV,3,3,09,06,39,103,44,,,,,,,,,,,,*4E
$GPGSA,A,3,05,07,29,02,09,19,13,30,06,,,,1.7,0.9,1.4*35
$GPZDA,040349.02,27,02,1999,00,00*61
$GPGRS,040349.00,1,-0.3,0.2,0.4,0.1,-0.5,-0.3,0.0,0.2,0.2,,,*45

12:01:46  $GPGGA,040350.00,3643.98388772,N,12304.48720089,E,2,09,0.9,5.754,M,8.625,M,7.4,0612*71
$GPGSV,3,1,09,05,59,285,43,07,12,082,45,29,22,317,40,02,76,017,49*7E
$GPGSV,3,2,09,09,13,040,43,19,18,163,41,13,28,187,43,30,11,113,39*72
$GPGSV,3,3,09,06,39,103,44,,,,,,,,,,,,*4E
$GPGSA,A,3,05,07,29,02,09,19,13,30,06,,,,1.7,0.9,1.4*35
$GPZDA,040350.02,27,02,1999,00,00*69
$GPGRS,040350.00,1,-0.4,0.2,0.4,0.1,-0.5,-0.3,0.1,0.2,0.2,,,*4B

12:01:47  $GPGGA,040351.00,3643.98394944,N,12304.48722450,E,2,09,0.9,5.890,M,8.625,M,6.0,0612*76
$GPGSV,3,1,09,05,59,285,44,07,12,082,45,29,22,317,39,02,76,017,48*76
$GPGSV,3,2,09,09,13,040,43,19,18,163,40,13,28,187,43,30,11,113,40*7D
$GPGSV,3,3,09,06,39,103,44,,,,,,,,,,,,*4E
$GPGSA,A,3,05,07,29,02,09,19,13,30,06,,,,1.7,0.9,1.4*35
$GPZDA,040351.02,27,02,1999,00,00*68
$GPGRS,040351.00,1,-0.3,0.6,0.4,0.1,-0.8,-0.4,0.1,-0.1,0.2,,,*6D

12:01:48  $GPGGA,040352.00,3643.98400808,N,12304.48724805,E,2,09,0.9,5.944,M,8.625,M,7.0,0612*75
$GPGSV,3,1,09,05,59,285,43,07,12,082,45,29,22,317,40,02,76,017,48*7F
$GPGSV,3,2,09,09,13,040,44,19,18,163,40,13,28,187,43,30,11,113,39*74
$GPGSV,3,3,09,06,39,103,45,,,,,,,,,,,,*4F
$GPGSA,A,3,05,07,29,02,09,19,13,30,06,,,,1.7,0.9,1.4*35
$GPZDA,040352.02,27,02,1999,00,00*6B
$GPGRS,040352.00,1,-0.3,0.6,0.4,0.1,-0.8,-0.4,0.2,-0.1,0.2,,,*6D

12:01:49  $GPGGA,040353.00,3643.98388164,N,12304.48715217,E,2,09,0.9,5.636,M,8.625,M,6.2,0612*72
$GPGSV,3,1,09,05,59,285,43,07,12,082,45,29,22,317,42,02,76,017,48*7D
$GPGSV,3,2,09,09,13,040,43,19,18,163,41,13,28,187,43,30,11,113,39*72
$GPGSV,3,3,09,06,39,103,44,,,,,,,,,,,,*4E
$GPGSA,A,3,05,07,29,02,09,19,13,30,06,,,,1.7,0.9,1.4*35
$GPZDA,040353.02,27,02,1999,00,00*6A
$GPGRS,040353.00,1,-0.5,0.6,0.3,0.3,-0.4,0.5,-0.2,-0.8,0.1,,,*68

12:01:50  $GPGGA,040354.00,3643.98373698,N,12304.48718887,E,2,08,1.3,5.788,M,8.625,M,7.2,0612*74
$GPGSV,3,1,09,05,59,285,42,07,12,082,45,29,22,317,37,02,76,017,48*7E
$GPGSV,3,2,09,09,13,040,43,19,18,163,40,13,28,187,43,30,11,113,41*7C
$GPGSV,3,3,09,06,39,103,44,,,,,,,,,,,,*4E
$GPGSA,A,3,05,07,02,09,19,13,30,06,,,,,2.3,1.3,1.9*3F
$GPZDA,040354.02,27,02,1999,00,00*6D
$GPGRS,040354.00,1,-0.2,0.7,0.2,-0.1,0.6,-0.1,-1.0,-0.1,,,,*64

12:01:51  $GPGGA,040355.00,3643.98360284,N,12304.48728023,E,2,08,1.3,5.726,M,8.625,M,6.4,0612*78
$GPGSV,3,1,09,05,59,285,44,07,12,082,45,29,22,317,40,02,76,017,48*78
$GPGSV,3,2,09,09,13,040,43,19,18,163,40,13,28,187,43,30,11,113,40*7D
$GPGSV,3,3,09,06,39,103,44,,,,,,,,,,,,*4E
$GPGSA,A,3,05,07,02,09,19,13,30,06,,,,,2.3,1.3,1.9*3F
$GPZDA,040355.02,27,02,1999,00,00*6C
$GPGRS,040355.00,1,-0.0,0.4,0.3,-0.2,0.3,-0.3,-0.1,-0.4,,,,*64

12:01:52  $GPGGA,040356.00,3643.98357277,N,12304.48717936,E,2,09,0.9,5.181,M,8.625,M,7.4,0612*72
$GPGSV,3,1,09,05,59,285,43,07,12,082,45,29,22,317,40,02,76,017,48*7F
$GPGSV,3,2,09,09,13,040,43,19,18,163,41,13,28,187,44,30,11,113,40*7B
$GPGSV,3,3,09,06,39,103,45,,,,,,,,,,,,*4F
$GPGSA,A,3,05,07,29,02,09,19,13,30,06,,,,1.7,0.9,1.4*35
$GPZDA,040356.02,27,02,1999,00,00*6F
$GPGRS,040356.00,1,-0.4,0.4,0.4,0.4,-0.7,0.3,-0.4,-0.0,-0.0,,,*49

12:01:53  $GPGGA,040357.00,3643.98354376,N,12304.48713365,E,2,09,0.9,4.893,M,8.625,M,8.4,0612*7C
$GPGSV,3,1,09,05,59,285,43,07,12,082,44,29,22,317,42,02,76,017,49*7D
$GPGSV,3,2,09,09,13,040,43,19,18,163,41,13,28,187,43,30,11,113,40*7C
$GPGSV,3,3,09,06,39,103,44,,,,,,,,,,,,*4E
$GPGSA,A,3,05,07,29,02,09,19,13,30,06,,,,1.7,0.9,1.4*35
$GPZDA,040357.02,27,02,1999,00,00*6E
$GPGRS,040357.00,1,-0.4,0.5,0.5,0.4,-0.7,0.3,-0.5,-0.0,-0.0,,,*49

12:01:54  $GPGGA,040358.00,3643.98351692,N,12304.48706776,E,2,09,0.9,4.817,M,8.625,M,7.0,0612*7C
$GPGSV,3,1,09,05,59,285,43,07,12,082,44,29,22,317,41,02,76,017,48*7F
$GPGSV,3,2,09,09,13,040,43,19,18,163,40,13,28,187,43,30,11,113,39*73
$GPGSV,3,3,09,06,39,103,44,,,,,,,,,,,,*4E
$GPGSA,A,3,05,07,29,02,09,19,13,30,06,,,,1.7,0.9,1.4*35
$GPZDA,040358.02,27,02,1999,00,00*61
$GPGRS,040358.00,1,-0.4,0.1,0.5,0.4,-0.6,0.4,-0.5,0.1,0.1,,,*44

12:01:55  $GPGGA,040359.00,3643.98350491,N,12304.48699306,E,2,09,0.9,4.706,M,8.625,M,8.0,0612*79
$GPGSV,3,1,09,05,59,285,43,07,12,082,44,29,22,317,39,02,76,017,48*70
$GPGSV,3,2,09,09,13,040,44,19,18,163,40,13,28,187,44,30,11,113,40*7D
$GPGSV,3,3,09,06,39,103,44,,,,,,,,,,,,*4E
$GPGSA,A,3,05,07,29,02,09,19,13,30,06,,,,1.7,0.9,1.4*35
$GPZDA,040359.02,27,02,1999,00,00*60
$GPGRS,040359.00,1,-0.4,0.1,0.5,0.4,-0.6,0.4,-0.5,0.0,0.1,,,*44

12:01:56  $GPGGA,040400.00,3643.98352045,N,12304.48692973,E,2,09,0.9,4.550,M,8.625,M,7.2,0612*72
$GPGSV,3,1,09,05,59,285,42,07,12,081,44,29,22,317,40,02,77,017,49*7C
$GPGSV,3,2,09,09,13,040,44,19,18,163,40,13,28,187,44,30,11,113,39*73
$GPGSV,3,3,09,06,39,103,44,,,,,,,,,,,,*4E
$GPGSA,A,3,05,07,29,02,09,19,13,30,06,,,,1.7,0.9,1.4*35
$GPZDA,040400.02,27,02,1999,00,00*6B
$GPGRS,040400.00,1,-0.4,0.1,0.5,0.4,-0.5,0.5,-0.6,0.0,0.1,,,*4E

12:01:57  $GPGGA,040401.00,3643.98353334,N,12304.48689705,E,2,09,0.9,4.420,M,8.625,M,8.2,0612*7B
$GPGSV,3,1,09,05,59,285,43,07,12,081,45,29,22,317,41,02,77,017,48*7C
$GPGSV,3,2,09,09,13,040,44,19,18,163,40,13,28,187,43,30,11,113,40*7A
$GPGSV,3,3,09,06,39,103,44,,,,,,,,,,,,*4E
$GPGSA,A,3,05,07,29,02,09,19,13,30,06,,,,1.7,0.9,1.4*35
$GPZDA,040401.02,27,02,1999,00,00*6A
$GPGRS,040401.00,1,-0.4,0.1,0.5,0.4,-0.5,0.5,-0.6,-0.0,0.1,,,*62

12:01:58  $GPGGA,040402.00,3643.98350355,N,12304.48698602,E,2,09,0.9,4.523,M,8.625,M,7.4,0612*71
$GPGSV,3,1,09,05,59,285,43,07,12,081,44,29,22,317,40,02,77,017,49*7D
$GPGSV,3,2,09,09,13,040,43,19,18,163,39,13,28,187,43,30,11,113,40*73
$GPGSV,3,3,09,06,39,103,44,,,,,,,,,,,,*4E
$GPGSA,A,3,05,07,29,02,09,19,13,30,06,,,,1.7,0.9,1.4*35
$GPZDA,040402.02,27,02,1999,00,00*69
$GPGRS,040402.00,1,-0.3,0.1,0.3,0.3,-0.3,0.5,-0.5,-0.1,-0.1,,,*4E

12:01:59  $GPGGA,040403.00,3643.98347154,N,12304.48705673,E,2,09,0.9,4.604,M,8.625,M,8.4,0612*7F
$GPGSV,3,1,09,05,59,285,43,07,12,081,45,29,22,317,38,02,77,017,49*73
$GPGSV,3,2,09,09,13,040,43,19,18,163,40,13,28,187,43,30,11,113,40*7D
$GPGSV,3,3,09,06,39,103,44,,,,,,,,,,,,*4E
$GPGSA,A,3,05,07,29,02,09,19,13,30,06,,,,1.7,0.9,1.4*35
$GPZDA,040403.02,27,02,1999,00,00*68
$GPGRS,040403.00,1,-0.3,0.1,0.2,0.3,-0.3,0.6,-0.5,-0.1,-0.1,,,*4D

12:02:00  $GPGGA,040404.00,3643.98342600,N,12304.48703088,E,2,09,0.9,4.688,M,8.625,M,6.4,0612*75
$GPGSV,3,1,09,05,59,285,43,07,12,081,45,29,22,317,42,02,77,017,49*7E
$GPGSV,3,2,09,09,13,040,43,19,18,163,40,13,28,187,43,30,11,113,40*7D
$GPGSV,3,3,09,06,39,104,44,,,,,,,,,,,,*49
$GPGSA,A,3,05,07,29,02,09,19,13,30,06,,,,1.7,0.9,1.4*35
$GPZDA,040404.02,27,02,1999,00,00*6F
$GPGRS,040404.00,1,-0.3,-0.4,0.2,0.4,0.0,0.7,-0.6,0.2,-0.0,,,*66

12:02:01  $GPGGA,040405.00,3643.98338787,N,12304.48701030,E,2,09,0.9,4.801,M,8.625,M,7.4,0612*78
$GPGSV,3,1,09,05,59,285,43,07,12,081,45,29,22,317,40,02,77,017,48*7D
$GPGSV,3,2,09,09,13,040,43,19,18,163,40,13,28,187,43,30,11,113,41*7C
$GPGSV,3,3,09,06,39,104,44,,,,,,,,,,,,*49
$GPGSA,A,3,05,07,29,02,09,19,13,30,06,,,,1.7,0.9,1.4*35
$GPZDA,040405.02,27,02,1999,00,00*6E
$GPGRS,040405.00,1,-0.3,-0.4,0.2,0.4,0.1,0.7,-0.6,0.2,-0.1,,,*67

12:02:02  $GPGGA,040406.00,3643.98339442,N,12304.48699006,E,2,09,0.9,4.986,M,8.625,M,6.0,0612*7E
$GPGSV,3,1,09,05,59,285,43,07,12,081,44,29,22,317,40,02,77,017,49*7D
$GPGSV,3,2,09,09,13,040,44,19,18,163,40,13,28,187,43,30,11,113,40*7A
$GPGSV,3,3,09,06,39,104,44,,,,,,,,,,,,*49
$GPGSA,A,3,05,07,29,02,09,19,13,30,06,,,,1.7,0.9,1.4*35
$GPZDA,040406.02,27,02,1999,00,00*6D
$GPGRS,040406.00,1,-0.2,-0.3,0.3,0.3,-0.2,0.3,-0.4,0.4,0.0,,,*66

12:02:03  $GPGGA,040407.00,3643.98339677,N,12304.48696722,E,2,09,0.9,5.035,M,8.625,M,7.0,0612*74
$GPGSV,3,1,09,05,59,285,43,07,12,081,44,29,22,317,41,02,77,017,49*7C
$GPGSV,3,2,09,09,13,040,43,19,18,163,41,13,28,187,43,30,11,113,41*7D
$GPGSV,3,3,09,06,39,104,45,,,,,,,,,,,,*48
$GPGSA,A,3,05,07,29,02,09,19,13,30,06,,,,1.7,0.9,1.4*35
$GPZDA,040407.02,27,02,1999,00,00*6C
$GPGRS,040407.00,1,-0.2,-0.4,0.3,0.3,-0.2,0.3,-0.4,0.4,0.0,,,*60

12:02:04  $GPGGA,040408.00,3643.98340539,N,12304.48695440,E,2,09,0.9,5.022,M,8.625,M,6.2,0612*7D
$GPGSV,3,1,09,05,59,286,44,07,12,081,44,29,22,317,41,02,77,018,49*77
$GPGSV,3,2,09,09,13,040,44,19,18,163,40,13,28,187,43,30,11,113,40*7A
$GPGSV,3,3,09,06,39,104,44,,,,,,,,,,,,*49
$GPGSA,A,3,05,07,29,02,09,19,13,30,06,,,,1.7,0.9,1.4*35
$GPZDA,040408.02,27,02,1999,00,00*63
$GPGRS,040408.00,1,-0.3,-0.5,0.3,0.3,-0.2,0.3,-0.5,0.4,0.1,,,*6F

12:02:05  $GPGGA,040409.00,3643.98340527,N,12304.48697136,E,2,09,0.9,5.066,M,8.625,M,7.2,0612*74
$GPGSV,3,1,09,05,59,286,43,07,12,081,44,29,22,317,38,02,77,018,48*7F
$GPGSV,3,2,09,09,13,040,43,19,18,163,40,13,28,187,43,30,11,113,40*7D
$GPGSV,3,3,09,06,39,104,45,,,,,,,,,,,,*48
$GPGSA,A,3,05,07,29,02,09,19,13,30,06,,,,1.7,0.9,1.4*35
$GPZDA,040409.02,27,02,1999,00,00*62
$GPGRS,040409.00,1,-0.3,-0.5,0.3,0.3,-0.2,0.3,-0.5,0.4,0.1,,,*6E

12:02:06  $GPGGA,040410.00,3643.98342735,N,12304.48702211,E,2,09,0.9,5.132,M,8.625,M,6.4,0612*73
$GPGSV,3,1,09,05,59,286,43,07,12,081,45,29,22,317,40,02,77,018,48*71
$GPGSV,3,2,09,09,13,040,43,19,18,163,40,13,28,187,43,30,11,113,40*7D
$GPGSV,3,3,09,06,39,104,44,,,,,,,,,,,,*49
$GPGSA,A,3,05,07,29,02,09,19,13,30,06,,,,1.7,0.9,1.4*35
$GPZDA,040410.02,27,02,1999,00,00*6A
$GPGRS,040410.00,1,-0.2,-0.0,0.3,0.2,-0.4,0.2,-0.4,0.2,0.0,,,*62

12:02:07  $GPGGA,040411.00,3643.98345396,N,12304.48703239,E,2,09,0.9,5.166,M,8.625,M,7.4,0612*73
$GPGSV,3,1,09,05,59,286,43,07,12,081,44,29,22,317,41,02,77,018,49*70
$GPGSV,3,2,09,09,13,040,43,19,18,163,40,13,28,187,44,30,11,113,41*7B
$GPGSV,3,3,09,06,39,104,44,,,,,,,,,,,,*49
$GPGSA,A,3,05,07,29,02,09,19,13,30,06,,,,1.7,0.9,1.4*35
$GPZDA,040411.02,27,02,1999,00,00*6B
$GPGRS,040411.00,1,-0.2,-0.0,0.3,0.2,-0.4,0.2,-0.4,0.2,0.0,,,*63

12:02:08  $GPGGA,040412.00,3643.98346332,N,12304.48704170,E,2,09,0.9,5.099,M,8.625,M,6.0,0612*70
$GPGSV,3,1,09,05,59,286,43,07,12,081,45,29,22,317,39,02,77,018,48*7F
$GPGSV,3,2,09,09,13,040,43,19,18,163,41,13,28,187,43,30,11,113,40*7C
$GPGSV,3,3,09,06,39,104,44,,,,,,,,,,,,*49
$GPGSA,A,3,05,07,29,02,09,19,13,30,06,,,,1.7,0.9,1.4*35
$GPZDA,040412.02,27,02,1999,00,00*68
$GPGRS,040412.00,1,-0.1,-0.0,0.3,0.2,-0.4,0.4,-0.6,0.2,0.0,,,*67

12:02:09  $GPGGA,040413.00,3643.98346228,N,12304.48708164,E,2,09,0.9,5.010,M,8.625,M,7.0,0612*72
$GPGSV,3,1,09,05,59,286,43,07,12,081,44,29,22,317,41,02,77,018,48*71
$GPGSV,3,2,09,09,13,040,44,19,18,163,41,13,28,187,43,30,11,113,41*7A
$GPGSV,3,3,09,06,39,104,45,,,,,,,,,,,,*48
$GPGSA,A,3,05,07,29,02,09,19,13,30,06,,,,1.7,0.9,1.4*35
$GPZDA,040413.02,27,02,1999,00,00*69
$GPGRS,040413.00,1,-0.1,-0.0,0.3,0.2,-0.4,0.4,-0.6,0.2,0.0,,,*66

12:02:10  $GPGGA,040414.00,3643.98346125,N,12304.48713741,E,2,09,0.9,4.903,M,8.625,M,6.2,0612*79
$GPGSV,3,1,09,05,59,286,43,07,13,081,45,29,22,317,39,02,77,018,48*7E
$GPGSV,3,2,09,09,13,040,43,19,18,163,41,13,28,187,42,30,11,113,40*7D
$GPGSV,3,3,09,06,39,104,44,,,,,,,,,,,,*49
$GPGSA,A,3,05,07,29,02,09,19,13,30,06,,,,1.7,0.9,1.4*35
$GPZDA,040414.02,27,02,1999,00,00*6E
$GPGRS,040414.00,1,-0.1,-0.3,0.4,0.3,-0.6,0.3,-0.8,0.8,-0.1,,,*49

12:02:11  $GPGGA,040415.00,3643.98346853,N,12304.48714493,E,2,09,0.9,4.854,M,8.625,M,7.2,0612*79
$GPGSV,3,1,09,05,59,286,43,07,13,081,45,29,22,317,40,02,77,018,48*70
$GPGSV,3,2,09,09,13,040,43,19,18,163,41,13,28,187,42,30,11,113,39*73
$GPGSV,3,3,09,06,39,104,44,,,,,,,,,,,,*49
$GPGSA,A,3,05,07,29,02,09,19,13,30,06,,,,1.7,0.9,1.4*35
$GPZDA,040415.02,27,02,1999,00,00*6F
$GPGRS,040415.00,1,-0.1,-0.3,0.4,0.3,-0.6,0.3,-0.8,0.8,-0.1,,,*48

12:02:12  $GPGGA,040416.00,3643.98345786,N,12304.48717896,E,2,09,0.9,4.860,M,8.625,M,6.4,0612*74
