$GPGGA,035505.00,3643.96473702,N,12304.47800795,E,2,06,1.1,5.326,M,8.624,M,4.4,0736*75
$GPGSV,3,1,11,05,57,278,41,07,11,085,37,29,19,319,39,25,08,276,32*75
$GPGSV,3,2,11,09,17,042,40,02,74,003,41,19,22,162,34,12,09,240,32*75
$GPGSV,3,3,11,13,24,187,39,30,08,116,32,06,42,099,43,,,,*42
$GPGSA,A,3,05,29,09,02,13,06,,,,,,,2.0,1.1,1.6*36
$GPZDA,035505.01,27,02,1999,00,00*6E
$GPGRS,035505.00,1,-0.3,0.5,-0.3,0.0,-0.1,0.2,,,,,,*63
$GPGGA,035506.00,3643.96473614,N,12304.47801444,E,2,06,1.1,5.233,M,8.624,M,5.4,0736*7A
$GPGSV,3,1,11,05,57,278,41,07,11,085,37,29,19,319,40,25,08,276,33*7A
$GPGSV,3,2,11,09,17,042,40,02,74,003,41,19,22,162,33,12,09,240,33*73
$GPGSV,3,3,11,13,24,187,39,30,08,116,32,06,42,099,43,,,,*42
$GPGSA,A,3,05,29,09,02,13,06,,,,,,,2.0,1.1,1.6*36
$GPZDA,035506.01,27,02,1999,00,00*6D
$GPGRS,035506.00,1,-0.3,0.5,-0.3,0.1,-0.1,0.2,,,,,,*61
$GPGGA,035507.00,3643.96473803,N,12304.47799295,E,2,06,1.1,5.245,M,8.624,M,3.4,0736*70
$GPGSV,3,1,11,05,57,279,41,07,11,085,37,29,19,319,41,25,08,276,29*71
$GPGSV,3,2,11,09,17,042,40,02,74,003,40,19,22,162,33,12,09,240,34*75
$GPGSV,3,3,11,13,24,187,39,30,08,116,32,06,42,099,43,,,,*42
$GPGSA,A,3,05,29,09,02,13,06,,,,,,,2.0,1.1,1.6*36
$GPZDA,035507.01,27,02,1999,00,00*6C
$GPGRS,035507.00,1,-0.3,0.4,-0.3,0.1,-0.1,0.2,,,,,,*61
$GPGGA,035508.00,3643.96475323,N,12304.47795135,E,2,06,1.1,5.299,M,8.624,M,4.4,0736*73
$GPGSV,3,1,11,05,57,279,41,07,11,085,38,29,19,319,41,25,08,276,32*74
$GPGSV,3,2,11,09,17,042,40,02,74,003,40,19,22,162,32,12,09,240,32*72
$GPGSV,3,3,11,13,24,187,39,30,08,116,31,06,42,099,43,,,,*41
$GPGSA,A,3,05,29,09,02,13,06,,,,,,,2.0,1.1,1.6*36
$GPZDA,035508.01,27,02,1999,00,00*63
$GPGRS,035508.00,1,-0.3,0.4,-0.3,0.1,-0.1,0.2,,,,,,*6E
$GPGGA,035509.00,3643.96477777,N,12304.47791895,E,2,06,1.1,5.334,M,8.624,M,5.4,0736*75
$GPGSV,3,1,11,05,57,279,41,07,11,085,38,29,19,319,38,25,08,276,33*7B
$GPGSV,3,2,11,09,17,042,39,02,74,003,40,19,22,162,33,12,09,240,34*7B
$GPGSV,3,3,11,13,24,187,39,30,08,116,32,06,42,099,43,,,,*42
$GPGSA,A,3,05,29,09,02,13,06,,,,,,,2.0,1.1,1.6*36
$GPZDA,035509.01,27,02,1999,00,00*62
$GPGRS,035509.00,1,-0.3,0.4,-0.3,0.0,-0.1,0.2,,,,,,*6E
$GPGGA,035510.00,3643.96478825,N,12304.47793244,E,2,06,1.1,5.285,M,8.624,M,3.4,0736*73
$GPGSV,3,1,11,05,57,279,40,07,11,085,39,29,19,319,41,25,08,276,33*75
$GPGSV,3,2,11,09,17,042,39,02,74,003,40,19,22,162,33,12,09,240,33*7C
$GPGSV,3,3,11,13,24,187,39,30,08,116,32,06,42,099,43,,,,*42
$GPGSA,A,3,05,29,09,02,13,06,,,,,,,2.0,1.1,1.6*36
$GPZDA,035510.01,27,02,1999,00,00*6A
$GPGRS,035510.00,1,-0.2,0.4,-0.3,0.1,-0.0,0.1,,,,,,*64
$GPGGA,035511.00,3643.96478715,N,12304.47796526,E,2,06,1.1,5.203,M,8.624,M,4.4,0736*71
$GPGSV,3,1,11,05,57,279,41,07,11,085,38,29,19,319,41,25,08,276,31*77
$GPGSV,3,2,11,09,17,042,39,02,74,003,40,19,22,162,32,12,09,240,32*7C
$GPGSV,3,3,11,13,24,187,39,30,08,116,31,06,42,099,43,,,,*41
$GPGSA,A,3,05,29,09,02,13,06,,,,,,,2.0,1.1,1.6*36
$GPZDA,035511.01,27,02,1999,00,00*6B
$GPGRS,035511.00,1,-0.2,0.4,-0.4,0.1,-0.0,0.1,,,,,,*62
$GPGGA,035512.00,3643.96479279,N,12304.47797780,E,2,06,1.1,5.276,M,8.624,M,2.4,0736*77
$GPGSV,3,1,11,05,57,279,41,07,11,085,37,29,19,319,42,25,08,276,32*78
$GPGSV,3,2,11,09,17,042,39,02,74,003,40,19,22,162,31,12,09,240,33*7E
$GPGSV,3,3,11,13,24,187,39,30,08,116,32,06,42,099,43,,,,*42
$GPGSA,A,3,05,29,09,02,13,06,,,,,,,2.0,1.1,1.6*36
$GPZDA,035512.02,27,02,1999,00,00*6B
$GPGRS,035512.00,1,-0.2,0.5,-0.4,0.1,-0.1,0.2,,,,,,*62
$GPGGA,035513.00,3643.96480201,N,12304.47795061,E,2,06,1.1,5.343,M,8.624,M,3.4,0736*73
$GPGSV,3,1,11,05,57,279,40,07,11,085,37,29,19,319,39,25,08,276,33*74
$GPGSV,3,2,11,09,17,042,40,02,74,003,40,19,22,162,33,12,09,240,33*72
$GPGSV,3,3,11,13,24,187,38,30,08,116,32,06,42,099,43,,,,*43
$GPGSA,A,3,05,29,09,02,13,06,,,,,,,2.0,1.1,1.6*36
$GPZDA,035513.01,27,02,1999,00,00*69
$GPGRS,035513.00,1,-0.2,0.5,-0.4,0.1,-0.1,0.2,,,,,,*63
$GPGGA,035514.00,3643.96480308,N,12304.47792520,E,2,06,1.1,5.382,M,8.624,M,4.4,0736*71
$GPGSV,3,1,11,05,57,279,41,07,11,085,37,29,19,319,38,25,08,276,32*75
$GPGSV,3,2,11,09,17,042,39,02,74,003,40,19,22,162,33,12,09,240,33*7C
$GPGSV,3,3,11,13,24,187,39,30,08,116,31,06,42,099,43,,,,*41
$GPGSA,A,3,05,29,09,02,13,06,,,,,,,2.0,1.1,1.6*36
$GPZDA,035514.01,27,02,1999,00,00*6E
$GPGRS,035514.00,1,-0.2,0.5,-0.4,0.1,-0.1,0.2,,,,,,*64
$GPGGA,035515.00,3643.96479151,N,12304.47793872,E,2,06,1.1,5.416,M,8.624,M,5.4,0736*78
$GPGSV,3,1,11,05,57,279,41,07,11,085,38,29,19,319,41,25,08,276,32*74
$GPGSV,3,2,11,09,17,042,39,02,74,003,40,19,22,162,32,12,09,240,33*7D
$GPGSV,3,3,11,13,24,187,39,30,08,116,33,06,42,099,43,,,,*43
$GPGSA,A,3,05,29,09,02,13,06,,,,,,,2.0,1.1,1.6*36
$GPZDA,035515.01,27,02,1999,00,00*6F
$GPGRS,035515.00,1,-0.2,0.5,-0.4,0.1,-0.1,0.2,,,,,,*65
$GPGGA,035516.00,3643.96478289,N,12304.47794656,E,2,06,1.1,5.463,M,8.624,M,6.4,0736*72
$GPGSV,3,1,11,05,57,279,40,07,11,085,37,29,19,319,40,25,08,276,32*7B
$GPGSV,3,2,11,09,17,042,38,02,74,003,40,19,22,162,32,12,09,240,32*7D
$GPGSV,3,3,11,13,24,187,39,30,08,116,32,06,42,099,43,,,,*42
$GPGSA,A,3,05,29,09,02,13,06,,,,,,,2.0,1.1,1.6*36
$GPZDA,035516.01,27,02,1999,00,00*6C
$GPGRS,035516.00,1,-0.2,0.5,-0.4,0.1,-0.1,0.2,,,,,,*66
$GPGGA,035517.00,3643.96478454,N,12304.47792933,E,2,06,1.1,5.484,M,8.624,M,7.4,0736*77
$GPGSV,3,1,11,05,57,279,41,07,11,085,38,29,19,319,40,25,08,276,31*76
$GPGSV,3,2,11,09,17,042,39,02,74,003,40,19,22,162,32,12,09,240,33*7D
$GPGSV,3,3,11,13,24,187,39,30,08,116,31,06,42,099,43,,,,*41
$GPGSA,A,3,05,29,09,02,13,06,,,,,,,2.0,1.1,1.6*36
$GPZDA,035517.01,27,02,1999,00,00*6D
$GPGRS,035517.00,1,-0.2,0.6,-0.4,0.1,-0.1,0.2,,,,,,*64
$GPGGA,035518.00,3643.96478471,N,12304.47792402,E,2,06,1.1,5.473,M,8.624,M,8.4,0736*77
$GPGSV,3,1,11,05,57,279,41,07,11,085,39,29,19,319,38,25,08,276,32*7B
$GPGSV,3,2,11,09,17,042,39,02,74,003,40,19,22,162,32,12,09,240,33*7D
$GPGSV,3,3,11,13,24,187,39,30,08,116,31,06,42,099,43,,,,*41
$GPGSA,A,3,05,29,09,02,13,06,,,,,,,2.0,1.1,1.6*36
$GPZDA,035518.01,27,02,1999,00,00*62
$GPGRS,035518.00,1,-0.2,0.6,-0.4,0.1,-0.1,0.2,,,,,,*6B
$GPGGA,035519.00,3643.96475031,N,12304.47793470,E,2,06,1.1,5.551,M,8.624,M,3.4,0736*75
$GPGSV,3,1,11,05,57,279,40,07,11,085,37,29,19,319,39,25,08,276,32*75
$GPGSV,3,2,11,09,17,042,39,02,74,004,41,19,22,162,32,12,09,240,32*7A
$GPGSV,3,3,11,13,24,187,38,30,08,116,32,06,42,099,43,,,,*43
$GPGSA,A,3,05,29,09,02,13,06,,,,,,,2.0,1.1,1.6*36
$GPZDA,035519.01,27,02,1999,00,00*63
$GPGRS,035519.00,1,-0.3,0.7,-0.2,0.0,-0.0,0.1,,,,,,*6F
$GPGGA,035520.00,3643.96473599,N,12304.47791843,E,2,06,1.1,5.618,M,8.624,M,4.4,0736*79
$GPGSV,3,1,11,05,57,279,41,07,11,085,37,29,19,319,40,25,08,276,31*79
$GPGSV,3,2,11,09,17,042,39,02,74,004,41,19,22,162,32,12,09,240,33*7B
$GPGSV,3,3,11,13,24,187,38,30,08,116,32,06,42,099,43,,,,*43
$GPGSA,A,3,05,29,09,02,13,06,,,,,,,2.0,1.1,1.6*36
$GPZDA,035520.01,27,02,1999,00,00*69
$GPGRS,035520.00,1,-0.3,0.8,-0.2,0.0,-0.0,0.1,,,,,,*6A
$GPGGA,035521.00,3643.96474533,N,12304.47785532,E,2,06,1.1,5.655,M,8.624,M,2.4,0736*7E
$GPGSV,3,1,11,05,57,279,41,07,11,085,39,29,19,319,40,25,08,276,32*74
$GPGSV,3,2,11,09,17,042,39,02,74,004,40,19,22,162,32,12,09,240,34*7D
$GPGSV,3,3,11,13,24,187,39,30,08,116,30,06,42,099,43,,,,*40
$GPGSA,A,3,05,29,09,02,13,06,,,,,,,2.0,1.1,1.6*36
$GPZDA,035521.01,27,02,1999,00,00*68
$GPGRS,035521.00,1,-0.4,0.4,-0.3,0.0,-0.1,0.2,,,,,,*63
$GPGGA,035522.00,3643.96474316,N,12304.47782278,E,2,06,1.1,5.649,M,8.624,M,3.4,0736*7E
$GPGSV,3,1,11,05,57,279,40,07,11,085,38,29,19,319,38,25,08,276,32*7B
$GPGSV,3,2,11,09,17,042,39,02,74,004,40,19,22,162,33,12,09,240,33*7B
$GPGSV,3,3,11,13,24,187,39,30,08,116,32,06,42,099,43,,,,*42
$GPGSA,A,3,05,29,09,02,13,06,,,,,,,2.0,1.1,1.6*36
$GPZDA,035522.01,27,02,1999,00,00*6B
$GPGRS,035522.00,1,-0.4,0.4,-0.3,0.0,-0.1,0.2,,,,,,*60
$GPGGA,035523.00,3643.96473906,N,12304.47782270,E,2,06,1.1,5.546,M,8.624,M,4.4,0736*70
$GPGSV,3,1,11,05,57,279,41,07,11,085,37,29,19,319,40,25,08,276,32*7A
$GPGSV,3,2,11,09,17,042,39,02,74,004,40,19,22,162,32,12,09,240,34*7D
$GPGSV,3,3,11,13,24,187,39,30,08,116,32,06,42,099,43,,,,*42
$GPGSA,A,3,05,29,09,02,13,06,,,,,,,2.0,1.1,1.6*36
$GPZDA,035523.01,27,02,1999,00,00*6A
$GPGRS,035523.00,1,-0.4,0.4,-0.3,0.0,-0.1,0.2,,,,,,*61
$GPGGA,035524.00,3643.96473531,N,12304.47782193,E,2,06,1.1,5.464,M,8.624,M,5.4,0736*71
$GPGSV,3,1,11,05,57,279,40,07,11,085,37,29,19,319,40,25,08,276,31*78
$GPGSV,3,2,11,09,17,042,39,02,74,004,40,19,22,162,33,12,09,240,32*7A
$GPGSV,3,3,11,13,24,187,38,30,08,116,32,06,42,099,43,,,,*43
$GPGSA,A,3,05,29,09,02,13,06,,,,,,,2.0,1.1,1.6*36
$GPZDA,035524.01,27,02,1999,00,00*6D
$GPGRS,035524.00,1,-0.4,0.4,-0.3,-0.0,-0.1,0.2,,,,,,*4B
$GPGGA,035525.00,3643.96472547,N,12304.47782589,E,2,06,1.1,5.457,M,8.624,M,3.4,0736*79
$GPGSV,3,1,11,05,57,279,41,07,11,085,38,29,19,319,38,25,08,276,32*7A
$GPGSV,3,2,11,09,17,042,39,02,74,004,41,19,22,162,32,12,09,240,32*7A
$GPGSV,3,3,11,13,24,187,39,30,08,116,31,06,42,099,43,,,,*41
$GPGSA,A,3,05,29,09,02,13,06,,,,,,,2.0,1.1,1.6*36
$GPZDA,035525.01,27,02,1999,00,00*6C
$GPGRS,035525.00,1,-0.3,0.5,-0.3,0.1,-0.1,0.2,,,,,,*60
$GPGGA,035526.00,3643.96470200,N,12304.47783735,E,2,06,1.1,5.466,M,8.624,M,4.4,0736*7D
$GPGSV,3,1,11,05,57,279,41,07,11,085,38,29,19,319,40,25,08,276,33*74
$GPGSV,3,2,11,09,17,042,39,02,74,004,40,19,22,162,33,12,09,240,34*7C
$GPGSV,3,3,11,13,24,187,39,30,08,116,31,06,42,099,43,,,,*41
$GPGSA,A,3,05,29,09,02,13,06,,,,,,,2.0,1.1,1.6*36
$GPZDA,035526.01,27,02,1999,00,00*6F
$GPGRS,035526.00,1,-0.3,0.5,-0.3,0.1,-0.1,0.2,,,,,,*63
$GPGGA,035527.00,3643.96469013,N,12304.47784964,E,2,06,1.1,5.501,M,8.624,M,5.4,0736*78
$GPGSV,3,1,11,05,57,279,41,07,11,085,37,29,19,319,41,25,08,276,32*7B
$GPGSV,3,2,11,09,17,042,39,02,74,004,41,19,22,162,32,12,09,240,35*7D
$GPGSV,3,3,11,13,24,187,39,30,08,116,32,06,42,099,43,,,,*42
$GPGSA,A,3,05,29,09,02,13,06,,,,,,,2.0,1.1,1.6*36
$GPZDA,035527.02,27,02,1999,00,00*6D
$GPGRS,035527.00,1,-0.3,0.5,-0.3,0.1,-0.1,0.2,,,,,,*62
$GPGGA,035528.00,3643.96469618,N,12304.47782007,E,2,06,1.1,5.488,M,8.624,M,3.4,0736*76
$GPGSV,3,1,11,05,57,279,41,07,11,085,38,29,19,319,38,25,08,276,30*78
$GPGSV,3,2,11,09,17,042,39,02,74,004,40,19,22,162,33,12,09,240,33*7B
$GPGSV,3,3,11,13,24,187,39,30,08,116,33,06,42,099,43,,,,*43
$GPGSA,A,3,05,29,09,02,13,06,,,,,,,2.0,1.1,1.6*36
$GPZDA,035528.01,27,02,1999,00,00*61
$GPGRS,035528.00,1,-0.4,0.3,-0.4,0.1,-0.0,0.2,,,,,,*6A
$GPGGA,035529.00,3643.96470570,N,12304.47779876,E,2,06,1.1,5.430,M,8.624,M,4.4,0736*7C
$GPGSV,3,1,11,05,57,279,41,07,11,085,37,29,19,319,40,25,08,276,33*7B
$GPGSV,3,2,11,09,16,042,39,02,74,004,41,19,22,162,33,12,09,240,34*7C
$GPGSV,3,3,11,13,24,187,39,30,08,116,32,06,42,099,43,,,,*42
$GPGSA,A,3,05,29,09,02,13,06,,,,,,,2.0,1.1,1.6*36
$GPZDA,035529.01,27,02,1999,00,00*60
$GPGRS,035529.00,1,-0.4,0.3,-0.4,0.1,-0.0,0.2,,,,,,*6B
$GPGGA,035530.00,3643.96472529,N,12304.47779908,E,2,06,1.1,5.311,M,8.624,M,2.4,0736*70
$GPGSV,3,1,11,05,57,279,41,07,11,085,38,29,19,319,40,25,08,276,32*75
$GPGSV,3,2,11,09,16,042,39,02,74,004,40,19,22,162,33,12,09,240,34*7D
$GPGSV,3,3,11,13,24,187,38,30,08,116,32,06,42,099,43,,,,*43
$GPGSA,A,3,05,29,09,02,13,06,,,,,,,2.0,1.1,1.6*36
$GPZDA,035530.01,27,02,1999,00,00*68
$GPGRS,035530.00,1,-0.3,0.3,-0.4,0.1,-0.0,0.2,,,,,,*64
$GPGGA,035531.00,3643.96466629,N,12304.47790600,E,2,05,1.5,5.545,M,8.624,M,3.4,0736*76
$GPGSV,3,1,11,05,57,279,41,07,11,085,37,29,19,319,37,25,08,276,33*7B
$GPGSV,3,2,11,09,16,042,39,02,74,004,40,19,22,162,33,12,09,240,34*7D
$GPGSV,3,3,11,13,24,187,38,30,08,116,31,06,42,099,43,,,,*40
$GPGSA,A,3,05,09,02,13,06,,,,,,,,2.6,1.5,2.1*3B
$GPZDA,035531.02,27,02,1999,00,00*6A
$GPGRS,035531.00,1,-0.1,0.0,0.1,0.1,-0.1,,,,,,,*61
$GPGGA,035532.00,3643.96461434,N,12304.47797850,E,2,05,1.5,5.729,M,8.624,M,4.4,0736*7F
$GPGSV,3,1,11,05,57,279,41,07,11,085,37,29,19,319,40,25,08,276,32*7A
$GPGSV,3,2,11,09,16,042,39,02,74,004,40,19,22,162,32,12,09,240,34*7C
$GPGSV,3,3,11,13,24,187,39,30,08,116,31,06,42,099,43,,,,*41
$GPGSA,A,3,05,09,02,13,06,,,,,,,,2.6,1.5,2.1*3B
$GPZDA,035532.01,27,02,1999,00,00*6A
$GPGRS,035532.00,1,-0.1,0.0,0.1,0.1,-0.1,,,,,,,*62
$GPGGA,035533.00,3643.96465429,N,12304.47791485,E,2,06,1.1,5.589,M,8.624,M,2.4,0736*7D
$GPGSV,3,1,11,05,57,279,42,07,11,085,38,29,19,319,40,25,08,276,31*75
$GPGSV,3,2,11,09,16,042,39,02,74,004,40,19,22,162,33,12,09,240,33*7A
$GPGSV,3,3,11,13,24,187,39,30,08,116,32,06,42,099,43,,,,*42
$GPGSA,A,3,05,29,09,02,13,06,,,,,,,2.0,1.1,1.6*36
$GPZDA,035533.02,27,02,1999,00,00*68
$GPGRS,035533.00,1,-0.3,0.4,-0.3,0.1,-0.0,0.2,,,,,,*67
$GPGGA,035534.00,3643.96467535,N,12304.47787764,E,2,06,1.1,5.481,M,8.624,M,3.4,0736*77
$GPGSV,3,1,11,05,57,279,41,07,11,085,37,29,19,319,39,25,08,276,33*75
$GPGSV,3,2,11,09,16,042,39,02,74,004,40,19,22,162,33,12,09,240,33*7A
$GPGSV,3,3,11,13,24,187,39,30,08,116,31,06,42,099,43,,,,*41
$GPGSA,A,3,05,29,09,02,13,06,,,,,,,2.0,1.1,1.6*36
$GPZDA,035534.01,27,02,1999,00,00*6C
$GPGRS,035534.00,1,-0.3,0.4,-0.3,0.1,-0.0,0.2,,,,,,*60
$GPGGA,035535.00,3643.96467860,N,12304.47787304,E,2,06,1.1,5.453,M,8.624,M,4.4,0736*71
$GPGSV,3,1,11,05,57,279,41,07,11,085,38,29,19,318,41,25,08,276,34*73
$GPGSV,3,2,11,09,16,042,39,02,74,004,40,19,22,162,32,12,09,240,34*7C
$GPGSV,3,3,11,13,24,187,39,30,08,116,32,06,42,099,43,,,,*42
$GPGSA,A,3,05,29,09,02,13,06,,,,,,,2.0,1.1,1.6*36
$GPZDA,035535.01,27,02,1999,00,00*6D
$GPGRS,035535.00,1,-0.3,0.4,-0.3,0.1,-0.0,0.2,,,,,,*61
$GPGGA,035536.00,3643.96468417,N,12304.47787599,E,2,06,1.1,5.478,M,8.624,M,5.4,0736*7B
$GPGSV,3,1,11,05,57,279,41,07,11,085,38,29,19,318,40,25,08,276,32*74
$GPGSV,3,2,11,09,16,042,39,02,74,004,41,19,22,162,33,12,09,240,33*7B
$GPGSV,3,3,11,13,24,187,39,30,08,116,32,06,42,099,43,,,,*42
$GPGSA,A,3,05,29,09,02,13,06,,,,,,,2.0,1.1,1.6*36
$GPZDA,035536.01,27,02,1999,00,00*6E
$GPGRS,035536.00,1,-0.3,0.4,-0.3,0.1,-0.0,0.2,,,,,,*62
$GPGGA,035537.00,3643.96470405,N,12304.47783881,E,2,06,1.1,5.412,M,8.624,M,3.4,0736*7A
$GPGSV,3,1,11,05,57,279,41,07,11,085,38,29,19,318,40,25,08,276,31*77
$GPGSV,3,2,11,09,16,042,40,02,74,004,39,19,22,162,33,12,09,240,33*7A
$GPGSV,3,3,11,13,25,187,38,30,08,116,31,06,42,099,43,,,,*41
$GPGSA,A,3,05,29,09,02,13,06,,,,,,,2.0,1.1,1.6*36
$GPZDA,035537.01,27,02,1999,00,00*6F
$GPGRS,035537.00,1,-0.3,0.3,-0.3,0.1,-0.0,0.2,,,,,,*64
$GPGGA,035538.00,3643.96471937,N,12304.47781962,E,2,06,1.1,5.373,M,8.624,M,4.4,0736*71
$GPGSV,3,1,11,05,57,279,41,07,11,085,38,29,19,318,39,25,08,276,34*7C
$GPGSV,3,2,11,09,16,042,39,02,74,004,40,19,22,162,33,12,09,240,34*7D
$GPGSV,3,3,11,13,25,187,38,30,08,116,31,06,42,099,43,,,,*41
$GPGSA,A,3,05,29,09,02,13,06,,,,,,,2.0,1.1,1.6*36
$GPZDA,035538.01,27,02,1999,00,00*60
$GPGRS,035538.00,1,-0.3,0.3,-0.3,0.1,-0.0,0.2,,,,,,*6B
$GPGGA,035539.00,3643.96472122,N,12304.47782692,E,2,06,1.1,5.436,M,8.624,M,2.4,0736*7C
$GPGSV,3,1,11,05,57,279,41,07,11,085,38,29,19,318,40,25,08,276,32*74
$GPGSV,3,2,11,09,16,042,39,02,74,004,40,19,22,162,33,12,09,240,34*7D
$GPGSV,3,3,11,13,25,187,38,30,08,116,32,06,42,100,44,,,,*44
$GPGSA,A,3,05,29,09,02,13,06,,,,,,,2.0,1.1,1.6*36
$GPZDA,035539.01,27,02,1999,00,00*61
$GPGRS,035539.00,1,-0.3,0.4,-0.3,0.0,-0.1,0.2,,,,,,*6D
$GPGGA,035540.00,3643.96471885,N,12304.47783544,E,2,06,1.1,5.437,M,8.624,M,3.4,0736*7C
$GPGSV,3,1,11,05,57,279,41,07,11,085,38,29,19,318,40,25,08,276,31*77
$GPGSV,3,2,11,09,16,042,39,02,74,004,40,19,22,162,34,12,09,240,33*7D
$GPGSV,3,3,11,13,25,187,38,30,08,116,32,06,42,100,43,,,,*43
$GPGSA,A,3,05,29,09,02,13,06,,,,,,,2.0,1.1,1.6*36
$GPZDA,035540.01,27,02,1999,00,00*6F
$GPGRS,035540.00,1,-0.3,0.4,-0.3,0.0,-0.1,0.2,,,,,,*63
$GPGGA,035541.00,3643.96471368,N,12304.47783424,E,2,06,1.1,5.441,M,8.624,M,4.4,0736*74
$GPGSV,3,1,11,05,57,279,41,07,11,085,38,29,19,318,40,25,08,276,32*74
$GPGSV,3,2,11,09,16,042,39,02,74,004,40,19,22,162,33,12,09,240,32*7B
$GPGSV,3,3,11,13,25,187,38,30,08,116,32,06,42,100,44,,,,*44
$GPGSA,A,3,05,29,09,02,13,06,,,,,,,2.0,1.1,1.6*36
$GPZDA,035541.01,27,02,1999,00,00*6E
$GPGRS,035541.00,1,-0.3,0.4,-0.3,0.0,-0.1,0.2,,,,,,*62
$GPGGA,035542.00,3643.96471710,N,12304.47780866,E,2,06,1.1,5.486,M,8.624,M,5.4,0736*7F
$GPGSV,3,1,11,05,57,279,41,07,11,085,38,29,19,318,40,25,08,276,33*75
$GPGSV,3,2,11,09,16,042,39,02,74,004,40,19,22,162,34,12,09,240,33*7D
$GPGSV,3,3,11,13,25,187,38,30,08,116,32,06,42,100,43,,,,*43
$GPGSA,A,3,05,29,09,02,13,06,,,,,,,2.0,1.1,1.6*36
$GPZDA,035542.02,27,02,1999,00,00*6E
$GPGRS,035542.00,1,-0.3,0.4,-0.3,0.0,-0.1,0.2,,,,,,*61
$GPGGA,035543.00,3643.96471459,N,12304.47780092,E,2,06,1.1,5.494,M,8.624,M,3.4,0736*76
$GPGSV,3,1,11,05,57,279,41,07,11,085,38,29,19,318,40,25,08,276,32*74
$GPGSV,3,2,11,09,16,042,39,02,74,004,41,19,22,162,32,12,09,240,34*7D
$GPGSV,3,3,11,13,25,187,38,30,08,116,31,06,42,100,43,,,,*40
$GPGSA,A,3,05,29,09,02,13,06,,,,,,,2.0,1.1,1.6*36
$GPZDA,035543.01,27,02,1999,00,00*6C
$GPGRS,035543.00,1,-0.4,0.3,-0.3,0.0,-0.1,0.2,,,,,,*60
$GPGGA,035544.00,3643.96470486,N,12304.47781351,E,2,06,1.1,5.484,M,8.624,M,4.4,0736*79
$GPGSV,3,1,11,05,57,279,41,07,11,085,39,29,19,318,40,25,08,276,32*75
$GPGSV,3,2,11,09,16,042,39,02,74,004,40,19,22,162,34,12,09,240,33*7D
$GPGSV,3,3,11,13,25,187,38,30,08,116,32,06,42,100,43,,,,*43
$GPGSA,A,3,05,29,09,02,13,06,,,,,,,2.0,1.1,1.6*36
$GPZDA,035544.01,27,02,1999,00,00*6B
$GPGRS,035544.00,1,-0.4,0.3,-0.3,0.0,-0.1,0.2,,,,,,*67
$GPGGA,035545.00,3643.96469702,N,12304.47783249,E,2,06,1.1,5.532,M,8.624,M,5.4,0736*78
$GPGSV,3,1,11,05,57,279,41,07,11,085,37,29,19,318,38,25,08,276,33*75
$GPGSV,3,2,11,09,16,042,39,02,74,004,40,19,22,162,33,12,09,240,33*7A
$GPGSV,3,3,11,13,25,187,39,30,08,116,32,06,42,100,43,,,,*42
$GPGSA,A,3,05,29,09,02,13,06,,,,,,,2.0,1.1,1.6*36
$GPZDA,035545.01,27,02,1999,00,00*6A
$GPGRS,035545.00,1,-0.4,0.3,-0.3,0.0,-0.1,0.2,,,,,,*66
$GPGGA,035546.00,3643.96469973,N,12304.47787160,E,2,06,1.1,5.527,M,8.624,M,3.4,0736*7D
$GPGSV,3,1,11,05,57,279,41,07,11,085,37,29,19,318,39,25,08,276,31*76
$GPGSV,3,2,11,09,16,042,39,02,74,004,40,19,22,162,33,12,09,240,33*7A
$GPGSV,3,3,11,13,25,187,38,30,08,116,32,06,42,100,43,,,,*43
$GPGSA,A,3,05,29,09,02,13,06,,,,,,,2.0,1.1,1.6*36
$GPZDA,035546.01,27,02,1999,00,00*69
$GPGRS,035546.00,1,-0.3,0.3,-0.2,0.1,-0.0,0.1,,,,,,*60
$GPGGA,035547.00,3643.96470913,N,12304.47786950,E,2,06,1.1,5.510,M,8.624,M,4.4,0736*7B
$GPGSV,3,1,11,05,57,279,40,07,11,085,38,29,19,318,40,25,08,276,30*77
$GPGSV,3,2,11,09,16,042,39,02,74,004,40,19,22,162,33,12,09,240,33*7A
$GPGSV,3,3,11,13,25,187,38,30,08,116,32,06,42,100,43,,,,*43
$GPGSA,A,3,05,29,09,02,13,06,,,,,,,2.0,1.1,1.6*36
$GPZDA,035547.01,27,02,1999,00,00*68
$GPGRS,035547.00,1,-0.3,0.3,-0.2,0.1,-0.0,0.1,,,,,,*61
$GPGGA,035548.00,3643.96472273,N,12304.47785314,E,2,06,1.1,5.480,M,8.624,M,2.4,0736*7C
$GPGSV,3,1,11,05,57,279,39,07,11,085,37,29,19,318,40,25,08,276,33*75
$GPGSV,3,2,11,09,16,042,40,02,74,004,40,19,22,162,34,12,09,240,32*72
$GPGSV,3,3,11,13,25,187,38,30,08,116,33,06,42,100,43,,,,*42
$GPGSA,A,3,05,29,09,02,13,06,,,,,,,2.0,1.1,1.6*36
$GPZDA,035548.01,27,02,1999,00,00*67
$GPGRS,035548.00,1,-0.4,0.3,-0.3,0.1,-0.0,0.1,,,,,,*68
$GPGGA,035549.00,3643.96474365,N,12304.47782402,E,2,06,1.1,5.428,M,8.624,M,3.4,0736*79
$GPGSV,3,1,11,05,57,279,40,07,11,085,37,29,19,318,40,25,08,276,33*7B
$GPGSV,3,2,11,09,16,042,39,02,74,004,40,19,22,162,33,12,09,240,34*7D
$GPGSV,3,3,11,13,25,187,38,30,09,116,32,06,42,100,42,,,,*43
$GPGSA,A,3,05,29,09,02,13,06,,,,,,,2.0,1.1,1.6*36
$GPZDA,035549.01,27,02,1999,00,00*66
$GPGRS,035549.00,1,-0.4,0.3,-0.3,0.1,-0.0,0.1,,,,,,*69
$GPGGA,035550.00,3643.96475459,N,12304.47780683,E,2,06,1.1,5.377,M,8.624,M,4.4,0736*7B
$GPGSV,3,1,11,05,57,279,40,07,11,085,38,29,19,318,37,25,08,276,31*76
$GPGSV,3,2,11,09,16,042,39,02,74,004,40,19,22,162,33,12,09,240,33*7A
$GPGSV,3,3,11,13,25,187,39,30,09,116,32,06,42,100,43,,,,*43
$GPGSA,A,3,05,29,09,02,13,06,,,,,,,2.0,1.1,1.6*36
$GPZDA,035550.01,27,02,1999,00,00*6E
$GPGRS,035550.00,1,-0.4,0.3,-0.3,0.1,-0.0,0.1,,,,,,*61
$GPGGA,035551.00,3643.96475526,N,12304.47780500,E,2,06,1.1,5.321,M,8.624,M,5.4,0736*79
$GPGSV,3,1,11,05,57,279,41,07,11,085,37,29,19,318,40,25,08,276,32*7B
$GPGSV,3,2,11,09,16,042,38,02,74,004,41,19,22,162,33,12,09,240,33*7A
$GPGSV,3,3,11,13,25,187,38,30,09,116,32,06,42,100,43,,,,*42
$GPGSA,A,3,05,29,09,02,13,06,,,,,,,2.0,1.1,1.6*36
$GPZDA,035551.01,27,02,1999,00,00*6F
$GPGRS,035551.00,1,-0.4,0.3,-0.3,0.1,-0.0,0.1,,,,,,*60
$GPGGA,035552.00,3643.96475352,N,12304.47782956,E,2,06,1.1,5.290,M,8.624,M,3.4,0736*7F
$GPGSV,3,1,11,05,57,279,40,07,11,085,36,29,19,318,41,25,08,276,31*79
$GPGSV,3,2,11,09,16,042,39,02,74,004,40,19,22,162,33,12,09,240,34*7D
$GPGSV,3,3,11,13,25,187,38,30,09,116,32,06,42,100,43,,,,*42
$GPGSA,A,3,05,29,09,02,13,06,,,,,,,2.0,1.1,1.6*36
$GPZDA,035552.01,27,02,1999,00,00*6C
$GPGRS,035552.00,1,-0.3,0.3,-0.4,0.2,0.0,0.1,,,,,,*4D
$GPGGA,035553.00,3643.96475945,N,12304.47782414,E,2,06,1.1,5.334,M,8.624,M,4.4,0736*71
$GPGSV,3,1,11,05,57,279,40,07,11,085,38,29,19,318,41,25,08,276,29*7E
$GPGSV,3,2,11,09,16,042,39,02,74,004,40,19,22,162,33,12,09,240,31*78
$GPGSV,3,3,11,13,25,187,38,30,09,116,32,06,42,100,43,,,,*42
$GPGSA,A,3,05,29,09,02,13,06,,,,,,,2.0,1.1,1.6*36
$GPZDA,035553.01,27,02,1999,00,00*6D
$GPGRS,035553.00,1,-0.3,0.3,-0.4,0.2,0.0,0.1,,,,,,*4C
$GPGGA,035554.00,3643.96477379,N,12304.47780703,E,2,06,1.1,5.312,M,8.624,M,5.4,0736*73
$GPGSV,3,1,11,05,57,279,40,07,11,085,37,29,19,318,39,25,08,276,32*74
$GPGSV,3,2,11,09,16,042,39,02,74,004,40,19,22,162,34,12,09,240,33*7D
$GPGSV,3,3,11,13,25,187,39,30,09,116,32,06,42,100,43,,,,*43
$GPGSA,A,3,05,29,09,02,13,06,,,,,,,2.0,1.1,1.6*36
$GPZDA,035554.01,27,02,1999,00,00*6A
$GPGRS,035554.00,1,-0.3,0.3,-0.4,0.2,0.0,0.1,,,,,,*4B
$GPGGA,035555.00,3643.96475219,N,12304.47781512,E,2,06,1.1,5.362,M,8.624,M,3.4,0736*75
$GPGSV,3,1,11,05,57,279,40,07,11,085,37,29,19,318,38,25,08,276,33*74
$GPGSV,3,2,11,09,16,041,39,02,74,004,40,19,22,162,32,12,09,240,34*7F
$GPGSV,3,3,11,13,25,187,39,30,09,116,32,06,42,100,42,,,,*42
$GPGSA,A,3,05,29,09,02,13,06,,,,,,,2.0,1.1,1.6*36
$GPZDA,035555.01,27,02,1999,00,00*6B
$GPGRS,035555.00,1,-0.3,0.4,-0.3,0.2,-0.0,0.2,,,,,,*64
$GPGGA,035556.00,3643.96473696,N,12304.47780212,E,2,06,1.1,5.477,M,8.624,M,4.4,0736*71
$GPGSV,3,1,11,05,57,279,40,07,11,085,37,29,19,318,40,25,08,276,30*78
$GPGSV,3,2,11,09,16,041,39,02,74,004,41,19,22,162,33,12,09,240,31*7A
$GPGSV,3,3,11,13,25,187,39,30,09,116,32,06,42,100,42,,,,*42
$GPGSA,A,3,05,29,09,02,13,06,,,,,,,2.0,1.1,1.6*36
$GPZDA,035556.01,27,02,1999,00,00*68
$GPGRS,035556.00,1,-0.3,0.4,-0.3,0.2,-0.0,0.2,,,,,,*67
$GPGGA,035557.00,3643.96475531,N,12304.47775648,E,2,06,1.1,5.500,M,8.624,M,2.4,0736*7E
$GPGSV,3,1,11,05,57,279,40,07,11,085,37,29,19,318,39,25,08,276,32*74
$GPGSV,3,2,11,09,16,041,39,02,74,004,40,19,22,162,34,12,09,240,34*79
$GPGSV,3,3,11,13,25,187,38,30,09,116,32,06,42,100,42,,,,*43
$GPGSA,A,3,05,29,09,02,13,06,,,,,,,2.0,1.1,1.6*36
$GPZDA,035557.02,27,02,1999,00,00*6A
$GPGRS,035557.00,1,-0.4,0.3,-0.3,0.2,-0.0,0.2,,,,,,*66
$GPGGA,035558.00,3643.96477080,N,12304.47774224,E,2,06,1.1,5.409,M,8.624,M,3.4,0736*7A
$GPGSV,3,1,11,05,57,279,40,07,11,085,38,29,19,318,38,25,08,276,32*7A
$GPGSV,3,2,11,09,16,041,39,02,74,004,40,19,22,162,33,12,09,240,34*7E
$GPGSV,3,3,11,13,25,187,38,30,09,116,32,06,42,100,43,,,,*42
$GPGSA,A,3,05,29,09,02,13,06,,,,,,,2.0,1.1,1.6*36
$GPZDA,035558.01,27,02,1999,00,00*66
$GPGRS,035558.00,1,-0.4,0.3,-0.3,0.2,-0.0,0.2,,,,,,*69
$GPGGA,035559.00,3643.96476178,N,12304.47775912,E,2,06,1.1,5.339,M,8.624,M,4.4,0736*70
$GPGSV,3,1,11,05,57,279,40,07,11,085,37,29,19,318,39,25,08,276,32*74
$GPGSV,3,2,11,09,16,041,38,02,75,004,40,19,22,162,33,12,09,240,34*7E
$GPGSV,3,3,11,13,25,187,38,30,09,116,32,06,42,100,43,,,,*42
$GPGSA,A,3,05,29,09,02,13,06,,,,,,,2.0,1.1,1.6*36
$GPZDA,035559.01,27,02,1999,00,00*67
$GPGRS,035559.00,1,-0.4,0.3,-0.3,0.2,-0.0,0.2,,,,,,*68
$GPGGA,035600.00,3643.96474578,N,12304.47775859,E,2,06,1.1,5.365,M,8.624,M,2.4,0736*78
$GPGSV,3,1,11,05,57,279,40,07,11,085,38,29,19,318,40,25,08,276,31*76
$GPGSV,3,2,11,09,16,041,39,02,75,004,40,19,22,162,33,12,09,240,33*78
$GPGSV,3,3,11,13,25,187,39,30,09,116,30,06,42,100,43,,,,*41
$GPGSA,A,3,05,29,09,02,13,06,,,,,,,2.0,1.1,1.6*36
$GPZDA,035600.01,27,02,1999,00,00*68
$GPGRS,035600.00,1,-0.4,0.3,-0.3,0.2,-0.0,0.1,,,,,,*64
$GPGGA,035601.00,3643.96475152,N,12304.47772370,E,2,06,1.1,5.405,M,8.624,M,3.4,0736*73
$GPGSV,3,1,11,05,57,279,41,07,11,085,38,29,20,318,40,25,08,276,32*7E
$GPGSV,3,2,11,09,16,041,39,02,75,004,41,19,22,162,33,12,09,240,33*79
$GPGSV,3,3,11,13,25,187,38,30,09,116,31,06,42,100,43,,,,*41
$GPGSA,A,3,05,29,09,02,13,06,,,,,,,2.0,1.1,1.6*36
$GPZDA,035601.01,27,02,1999,00,00*69
$GPGRS,035601.00,1,-0.4,0.3,-0.3,0.2,-0.0,0.1,,,,,,*65
$GPGGA,035602.00,3643.96476031,N,12304.47768676,E,2,06,1.1,5.409,M,8.624,M,4.4,0736*74
$GPGSV,3,1,11,05,57,279,40,07,11,085,37,29,20,318,38,25,08,276,34*79
$GPGSV,3,2,11,09,16,041,39,02,75,004,40,19,22,162,33,12,09,240,34*7F
$GPGSV,3,3,11,13,25,187,38,30,09,116,33,06,42,100,42,,,,*42
$GPGSA,A,3,05,29,09,02,13,06,,,,,,,2.0,1.1,1.6*36
$GPZDA,035602.01,27,02,1999,00,00*6A
$GPGRS,035602.00,1,-0.4,0.3,-0.3,0.2,-0.0,0.1,,,,,,*66
$GPGGA,035603.00,3643.96475283,N,12304.47769948,E,2,06,1.1,5.386,M,8.624,M,5.4,0736*7F
$GPGSV,3,1,11,05,57,279,41,07,11,085,39,29,20,318,40,25,08,276,33*7E
$GPGSV,3,2,11,09,16,041,39,02,75,005,40,19,22,162,33,12,09,239,33*77
$GPGSV,3,3,11,13,25,187,39,30,09,116,31,06,42,100,43,,,,*40
$GPGSA,A,3,05,29,09,02,13,06,,,,,,,2.0,1.1,1.6*36
$GPZDA,035603.01,27,02,1999,00,00*6B
$GPGRS,035603.00,1,-0.4,0.3,-0.3,0.2,-0.0,0.1,,,,,,*67
$GPGGA,035604.00,3643.96474638,N,12304.47771625,E,2,06,1.1,5.336,M,8.624,M,3.4,0736*7D
$GPGSV,3,1,11,05,57,279,40,07,11,085,38,29,20,318,41,25,08,276,31*7D
$GPGSV,3,2,11,09,16,041,39,02,75,005,40,19,22,162,32,12,09,239,34*71
$GPGSV,3,3,11,13,25,187,39,30,09,116,31,06,42,100,43,,,,*40
$GPGSA,A,3,05,29,09,02,13,06,,,,,,,2.0,1.1,1.6*36
$GPZDA,035604.01,27,02,1999,00,00*6C
$GPGRS,035604.00,1,-0.4,0.3,-0.3,0.1,-0.0,0.1,,,,,,*63
$GPGGA,035605.00,3643.96474240,N,12304.47771311,E,2,06,1.1,5.400,M,8.624,M,4.4,0736*70
$GPGSV,3,1,11,05,57,279,39,07,11,085,37,29,20,318,40,25,08,276,32*7E
$GPGSV,3,2,11,09,16,041,39,02,75,005,40,19,22,162,34,12,09,239,34*77
$GPGSV,3,3,11,13,25,187,39,30,09,116,32,06,42,100,43,,,,*43
$GPGSA,A,3,05,29,09,02,13,06,,,,,,,2.0,1.1,1.6*36
$GPZDA,035605.01,27,02,1999,00,00*6D
$GPGRS,035605.00,1,-0.4,0.3,-0.3,0.1,-0.0,0.1,,,,,,*62
$GPGGA,035606.00,3643.96473514,N,12304.47771244,E,2,06,1.1,5.468,M,8.624,M,2.4,0736*7B
$GPGSV,3,1,11,05,57,279,39,07,11,085,38,29,20,318,40,25,08,276,31*72
$GPGSV,3,2,11,09,16,041,39,02,75,005,40,19,22,162,32,12,09,239,33*76
$GPGSV,3,3,11,13,25,187,39,30,09,116,33,06,42,100,42,,,,*43
$GPGSA,A,3,05,29,09,02,13,06,,,,,,,2.0,1.1,1.6*36
$GPZDA,035606.01,27,02,1999,00,00*6E
$GPGRS,035606.00,1,-0.3,0.3,-0.3,0.1,-0.1,0.2,,,,,,*64
$GPGGA,035607.00,3643.96474283,N,12304.47769900,E,2,06,1.1,5.396,M,8.624,M,3.4,0736*71
$GPGSV,3,1,11,05,57,279,40,07,11,085,38,29,20,318,39,25,08,276,32*71
$GPGSV,3,2,11,09,16,041,39,02,75,005,40,19,22,162,32,12,09,239,34*71
$GPGSV,3,3,11,13,25,187,39,30,09,116,31,06,42,100,43,,,,*40
$GPGSA,A,3,05,29,09,02,13,06,,,,,,,2.0,1.1,1.6*36
$GPZDA,035607.01,27,02,1999,00,00*6F
$GPGRS,035607.00,1,-0.4,0.4,-0.3,0.1,-0.1,0.2,,,,,,*65
$GPGGA,035608.00,3643.96472758,N,12304.47772923,E,2,06,1.1,5.350,M,8.624,M,4.4,0736*7D
$GPGSV,3,1,11,05,57,279,40,07,11,085,38,29,20,318,38,25,08,276,33*71
$GPGSV,3,2,11,09,16,041,39,02,75,005,40,19,22,162,32,12,09,239,35*70
$GPGSV,3,3,11,13,25,187,39,30,09,116,30,06,42,100,43,,,,*41
$GPGSA,A,3,05,29,09,02,13,06,,,,,,,2.0,1.1,1.6*36
$GPZDA,035608.01,27,02,1999,00,00*60
$GPGRS,035608.00,1,-0.4,0.4,-0.3,0.1,-0.1,0.2,,,,,,*6A
$GPGGA,035609.00,3643.96470780,N,12304.47774445,E,2,06,1.1,5.372,M,8.624,M,5.4,0736*71
$GPGSV,3,1,11,05,57,279,40,07,11,085,39,29,20,318,40,25,08,276,32*7E
$GPGSV,3,2,11,09,16,041,39,02,75,005,40,19,22,162,33,12,09,239,33*77
$GPGSV,3,3,11,13,25,187,39,30,09,116,32,06,42,100,43,,,,*43
$GPGSA,A,3,05,29,09,02,13,06,,,,,,,2.0,1.1,1.6*36
$GPZDA,035609.01,27,02,1999,00,00*61
$GPGRS,035609.00,1,-0.4,0.4,-0.3,0.1,-0.1,0.2,,,,,,*6B
$GPGGA,035610.00,3643.96470423,N,12304.47773210,E,2,06,1.1,5.389,M,8.624,M,3.4,0736*70
$GPGSV,3,1,11,05,57,279,40,07,11,085,37,29,20,318,40,25,08,276,33*71
$GPGSV,3,2,11,09,16,041,39,02,75,005,40,19,22,162,33,12,09,239,33*77
$GPGSV,3,3,11,13,25,187,38,30,09,116,32,06,42,100,43,,,,*42
$GPGSA,A,3,05,29,09,02,13,06,,,,,,,2.0,1.1,1.6*36
$GPZDA,035610.01,27,02,1999,00,00*69
$GPGRS,035610.00,1,-0.4,0.3,-0.3,0.1,-0.0,0.2,,,,,,*65
$GPGGA,035611.00,3643.96471045,N,12304.47770951,E,2,06,1.1,5.452,M,8.624,M,4.4,0736*7F
$GPGSV,3,1,11,05,57,279,40,07,11,085,38,29,20,318,39,25,08,276,33*70
$GPGSV,3,2,11,09,16,041,39,02,75,005,40,19,22,162,33,12,09,239,34*70
$GPGSV,3,3,11,13,25,187,39,30,09,116,31,06,42,100,43,,,,*40
$GPGSA,A,3,05,29,09,02,13,06,,,,,,,2.0,1.1,1.6*36
$GPZDA,035611.01,27,02,1999,00,00*68
$GPGRS,035611.00,1,-0.4,0.3,-0.3,0.1,-0.0,0.2,,,,,,*64
$GPGGA,035612.00,3643.96473404,N,12304.47767264,E,2,06,1.1,5.475,M,8.624,M,5.4,0736*70
$GPGSV,3,1,11,05,57,279,41,07,11,085,39,29,20,318,39,25,08,276,32*71
$GPGSV,3,2,11,09,16,041,39,02,75,005,40,19,22,162,34,12,09,239,35*76
$GPGSV,3,3,11,13,25,187,39,30,09,116,31,06,42,100,43,,,,*40
$GPGSA,A,3,05,29,09,02,13,06,,,,,,,2.0,1.1,1.6*36
$GPZDA,035612.02,27,02,1999,00,00*68
$GPGRS,035612.00,1,-0.4,0.3,-0.3,0.1,-0.0,0.2,,,,,,*67
$GPGGA,035613.00,3643.96476101,N,12304.47767023,E,2,06,1.1,5.355,M,8.624,M,3.4,0736*76
$GPGSV,3,1,11,05,57,279,41,07,11,085,37,29,20,318,38,25,08,276,32*7E
$GPGSV,3,2,11,09,16,041,39,02,75,005,40,19,22,162,32,12,09,239,36*73
$GPGSV,3,3,11,13,25,187,38,30,09,116,30,06,42,100,43,,,,*40
$GPGSA,A,3,05,29,09,02,13,06,,,,,,,2.0,1.1,1.6*36
$GPZDA,035613.01,27,02,1999,00,00*6A
$GPGRS,035613.00,1,-0.3,0.3,-0.4,0.2,0.0,0.1,,,,,,*4B
$GPGGA,035614.00,3643.96469908,N,12304.47778765,E,2,05,1.5,5.635,M,8.624,M,4.4,0736*76
$GPGSV,3,1,11,05,57,279,40,07,11,085,38,29,20,318,36,25,08,276,32*7E
$GPGSV,3,2,11,09,16,041,39,02,75,005,40,19,22,162,32,12,09,239,35*70
$GPGSV,3,3,11,13,25,187,38,30,09,116,31,06,42,100,43,,,,*41
$GPGSA,A,3,05,09,02,13,06,,,,,,,,2.5,1.5,2.1*38
$GPZDA,035614.02,27,02,1999,00,00*6E
$GPGRS,035614.00,1,-0.1,0.0,0.1,0.1,-0.1,,,,,,,*65
$GPGGA,035615.00,3643.96467140,N,12304.47786356,E,2,05,1.5,5.778,M,8.624,M,2.4,0736*76
$GPGSV,3,1,11,05,57,279,40,07,11,085,38,29,20,318,40,25,08,276,31*7C
$GPGSV,3,2,11,09,16,041,39,02,75,005,41,19,22,162,33,12,09,239,34*71
$GPGSV,3,3,11,13,25,187,37,30,09,116,33,06,41,100,43,,,,*4F
$GPGSA,A,3,05,09,02,13,06,,,,,,,,2.5,1.5,2.1*38
$GPZDA,035615.01,27,02,1999,00,00*6C
$GPGRS,035615.00,1,-0.1,0.0,0.1,0.1,-0.1,,,,,,,*64
$GPGGA,035616.00,3643.96470172,N,12304.47781339,E,2,06,1.1,5.568,M,8.624,M,3.4,0736*79
$GPGSV,3,1,11,05,57,279,40,07,11,085,37,29,20,318,40,25,08,276,32*70
$GPGSV,3,2,11,09,16,041,39,02,75,005,40,19,22,162,33,12,09,239,35*71
$GPGSV,3,3,11,13,25,187,39,30,09,116,31,06,41,100,42,,,,*42
$GPGSA,A,3,05,29,09,02,13,06,,,,,,,2.0,1.1,1.6*36
$GPZDA,035616.02,27,02,1999,00,00*6C
$GPGRS,035616.00,1,-0.3,0.4,-0.3,0.2,0.0,0.1,,,,,,*4E
$GPGGA,035617.00,3643.96469987,N,12304.47781107,E,2,06,1.1,5.464,M,8.624,M,4.4,0736*77
$GPGSV,3,1,11,05,57,279,41,07,11,085,38,29,20,318,41,25,08,276,32*7F
$GPGSV,3,2,11,09,16,041,39,02,75,005,40,19,22,162,33,12,09,239,33*77
$GPGSV,3,3,11,13,25,187,38,30,09,116,31,06,41,100,42,,,,*43
$GPGSA,A,3,05,29,09,02,13,06,,,,,,,2.0,1.1,1.6*36
$GPZDA,035617.01,27,02,1999,00,00*6E
$GPGRS,035617.00,1,-0.3,0.4,-0.2,0.2,0.0,0.1,,,,,,*4E
$GPGGA,035618.00,3643.96471063,N,12304.47777749,E,2,06,1.1,5.416,M,8.624,M,2.4,0736*74
$GPGSV,3,1,11,05,57,279,40,07,11,085,37,29,20,318,41,25,08,276,32*71
$GPGSV,3,2,11,09,16,041,39,02,75,005,40,19,22,162,33,12,09,239,36*72
$GPGSV,3,3,11,13,25,187,38,30,09,116,31,06,41,100,42,,,,*43
$GPGSA,A,3,05,29,09,02,13,06,,,,,,,2.0,1.1,1.6*36
$GPZDA,035618.01,27,02,1999,00,00*61
$GPGRS,035618.00,1,-0.4,0.3,-0.3,0.2,0.0,0.2,,,,,,*43
$GPGGA,035619.00,3643.96472838,N,12304.47774504,E,2,06,1.1,5.450,M,8.624,M,3.4,0736*7B
$GPGSV,3,1,11,05,57,279,40,07,11,085,38,29,20,318,40,25,08,276,33*7E
$GPGSV,3,2,11,09,16,041,39,02,75,005,40,19,22,162,33,12,09,239,36*72
$GPGSV,3,3,11,13,25,187,38,30,09,116,31,06,41,100,42,,,,*43
$GPGSA,A,3,05,29,09,02,13,06,,,,,,,2.0,1.1,1.6*36
$GPZDA,035619.01,27,02,1999,00,00*60
$GPGRS,035619.00,1,-0.4,0.3,-0.3,0.2,0.0,0.1,,,,,,*41
$GPGGA,035620.00,3643.96475635,N,12304.47770970,E,2,06,1.1,5.375,M,8.624,M,4.4,0736*79
$GPGSV,3,1,11,05,57,279,40,07,11,085,38,29,20,318,41,25,08,276,31*7D
$GPGSV,3,2,11,09,16,041,39,02,75,005,40,19,22,162,34,12,09,239,34*77
$GPGSV,3,3,11,13,25,187,39,30,09,116,32,06,41,100,42,,,,*41
$GPGSA,A,3,05,29,09,02,13,06,,,,,,,2.0,1.1,1.6*36
$GPZDA,035620.01,27,02,1999,00,00*6A
$GPGRS,035620.00,1,-0.4,0.3,-0.3,0.2,0.0,0.2,,,,,,*48
$GPGGA,035621.00,3643.96477106,N,12304.47770783,E,2,06,1.1,5.263,M,8.624,M,5.4,0736*78
$GPGSV,3,1,11,05,57,279,40,07,11,085,39,29,20,318,40,25,08,276,32*7E
$GPGSV,3,2,11,09,16,041,38,02,75,005,41,19,22,162,33,12,09,239,34*70
$GPGSV,3,3,11,13,25,187,38,30,09,116,30,06,41,100,43,,,,*43
$GPGSA,A,3,05,29,09,02,13,06,,,,,,,2.0,1.1,1.6*36
$GPZDA,035621.01,27,02,1999,00,00*6B
$GPGRS,035621.00,1,-0.4,0.3,-0.3,0.2,0.0,0.2,,,,,,*49
$GPGGA,035622.00,3643.96476902,N,12304.47773955,E,2,06,1.1,5.256,M,8.624,M,3.4,0736*70
$GPGSV,3,1,11,05,57,279,41,07,11,085,37,29,20,318,40,25,08,276,32*71
$GPGSV,3,2,11,09,16,041,39,02,75,005,41,19,22,162,34,12,09,239,34*76
$GPGSV,3,3,11,13,25,187,38,30,09,116,31,06,41,100,42,,,,*43
$GPGSA,A,3,05,29,09,02,13,06,,,,,,,2.0,1.1,1.6*36
$GPZDA,035622.01,27,02,1999,00,00*68
$GPGRS,035622.00,1,-0.4,0.3,-0.3,0.2,-0.0,0.1,,,,,,*64
$GPGGA,035623.00,3643.96477644,N,12304.47773392,E,2,06,1.1,5.312,M,8.624,M,4.4,0736*7A
$GPGSV,3,1,11,05,57,279,40,07,11,085,38,29,20,318,41,25,08,276,32*7E
$GPGSV,3,2,11,09,16,041,39,02,75,005,40,19,22,162,34,12,09,239,33*70
$GPGSV,3,3,11,13,25,187,38,30,09,116,32,06,41,100,42,,,,*40
$GPGSA,A,3,05,29,09,02,13,06,,,,,,,2.0,1.1,1.6*36
$GPZDA,035623.01,27,02,1999,00,00*69
$GPGRS,035623.00,1,-0.4,0.3,-0.3,0.2,-0.0,0.1,,,,,,*65
$GPGGA,035624.00,3643.96477855,N,12304.47772606,E,2,06,1.1,5.349,M,8.624,M,2.4,0736*72
$GPGSV,3,1,11,05,57,279,40,07,11,085,38,29,20,318,39,25,08,276,33*70
$GPGSV,3,2,11,09,16,041,39,02,75,005,39,19,22,162,34,12,09,239,34*79
$GPGSV,3,3,11,13,25,187,38,30,09,116,31,06,41,100,42,,,,*43
$GPGSA,A,3,05,29,09,02,13,06,,,,,,,2.0,1.1,1.6*36
$GPZDA,035624.01,27,02,1999,00,00*6E
$GPGRS,035624.00,1,-0.4,0.2,-0.2,0.1,-0.0,0.1,,,,,,*61
$GPGGA,035625.00,3643.96476586,N,12304.47774934,E,2,06,1.1,5.365,M,8.624,M,3.4,0736*76
$GPGSV,3,1,11,05,57,279,40,07,11,085,38,29,20,318,39,25,08,276,33*70
$GPGSV,3,2,11,09,16,041,39,02,75,005,40,19,22,162,34,12,09,239,36*75
$GPGSV,3,3,11,13,25,187,38,30,09,116,31,06,41,100,42,,,,*43
$GPGSA,A,3,05,29,09,02,13,06,,,,,,,2.0,1.1,1.6*36
$GPZDA,035625.01,27,02,1999,00,00*6F
$GPGRS,035625.00,1,-0.4,0.2,-0.3,0.1,-0.0,0.1,,,,,,*61
$GPGGA,035626.00,3643.96474993,N,12304.47779439,E,2,06,1.1,5.400,M,8.624,M,4.4,0736*71
$GPGSV,3,1,11,05,57,279,40,07,11,085,37,29,20,318,39,25,08,276,32*7E
$GPGSV,3,2,11,09,16,041,39,02,75,005,40,19,22,162,33,12,09,239,34*70
$GPGSV,3,3,11,13,25,187,38,30,09,116,31,06,41,100,42,,,,*43
$GPGSA,A,3,05,29,09,02,13,06,,,,,,,2.0,1.1,1.6*36
$GPZDA,035626.01,27,02,1999,00,00*6C
$GPGRS,035626.00,1,-0.4,0.2,-0.2,0.1,-0.0,0.1,,,,,,*63
$GPGGA,035627.00,3643.96476022,N,12304.47778407,E,2,06,1.1,5.352,M,8.624,M,5.4,0736*7C
$GPGSV,3,1,11,05,57,280,40,07,11,085,38,29,20,318,40,25,08,276,30*7B
$GPGSV,3,2,11,09,16,041,39,02,75,005,40,19,22,162,33,12,09,239,33*77
$GPGSV,3,3,11,13,25,187,38,30,09,116,31,06,41,100,42,,,,*43
$GPGSA,A,3,05,29,09,02,13,06,,,,,,,2.0,1.1,1.6*36
$GPZDA,035627.02,27,02,1999,00,00*6E
$GPGRS,035627.00,1,-0.4,0.2,-0.3,0.1,-0.0,0.1,,,,,,*63
$GPGGA,035628.00,3643.96475973,N,12304.47777254,E,2,06,1.1,5.335,M,8.624,M,6.4,0736*70
$GPGSV,3,1,11,05,57,280,40,07,11,085,38,29,20,318,40,25,08,276,34*7F
$GPGSV,3,2,11,09,16,041,39,02,75,005,40,19,22,162,34,12,09,239,35*76
$GPGSV,3,3,11,13,25,187,39,30,09,116,31,06,41,100,42,,,,*42
$GPGSA,A,3,05,29,09,02,13,06,,,,,,,2.0,1.1,1.6*36
$GPZDA,035628.01,27,02,1999,00,00*62
$GPGRS,035628.00,1,-0.4,0.2,-0.2,0.1,-0.0,0.1,,,,,,*6D
$GPGGA,035629.00,3643.96475296,N,12304.47777402,E,2,06,1.1,5.342,M,8.624,M,7.4,0736*75
$GPGSV,3,1,11,05,57,280,40,07,11,085,38,29,20,318,41,25,08,276,32*78
$GPGSV,3,2,11,09,16,041,39,02,75,005,40,19,22,162,33,12,09,239,35*71
$GPGSV,3,3,11,13,25,187,38,30,09,116,31,06,41,100,42,,,,*43
$GPGSA,A,3,05,29,09,02,13,06,,,,,,,2.0,1.1,1.6*36
$GPZDA,035629.01,27,02,1999,00,00*63
$GPGRS,035629.00,1,-0.4,0.2,-0.2,0.1,-0.0,0.1,,,,,,*6C
$GPGGA,035630.00,3643.96474707,N,12304.47778725,E,2,06,1.1,5.380,M,8.624,M,8.4,0736*79
$GPGSV,3,1,11,05,57,280,40,07,11,085,38,29,20,318,39,25,08,276,32*77
$GPGSV,3,2,11,09,16,041,39,02,75,005,40,19,22,162,33,12,09,239,35*71
$GPGSV,3,3,11,13,25,187,38,30,09,116,31,06,41,100,42,,,,*43
$GPGSA,A,3,05,29,09,02,13,06,,,,,,,2.0,1.1,1.6*36
$GPZDA,035630.01,27,02,1999,00,00*6B
$GPGRS,035630.00,1,-0.4,0.2,-0.2,0.1,-0.0,0.1,,,,,,*64
$GPGGA,035631.00,3643.96476452,N,12304.47779509,E,2,06,1.1,5.423,M,8.624,M,3.4,0736*71
$GPGSV,3,1,11,05,57,280,40,07,11,084,38,29,20,318,40,25,08,276,32*78
$GPGSV,3,2,11,09,16,041,39,02,75,005,39,19,21,162,33,12,09,239,34*7D
$GPGSV,3,3,11,13,25,187,38,30,09,116,31,06,41,100,43,,,,*42
$GPGSA,A,3,05,29,09,02,13,06,,,,,,,2.0,1.1,1.6*36
$GPZDA,035631.01,27,02,1999,00,00*6A
$GPGRS,035631.00,1,-0.4,0.2,-0.3,0.1,-0.0,0.1,,,,,,*64
$GPGGA,035632.00,3643.96478899,N,12304.47777455,E,2,06,1.1,5.493,M,8.624,M,4.4,0736*7D
$GPGSV,3,1,11,05,57,280,40,07,11,084,38,29,20,318,41,25,08,276,33*78
$GPGSV,3,2,11,09,16,041,39,02,75,005,40,19,21,162,33,12,09,239,35*72
$GPGSV,3,3,11,13,25,187,38,30,09,116,32,06,41,100,42,,,,*40
$GPGSA,A,3,05,29,09,02,13,06,,,,,,,2.0,1.1,1.6*36
$GPZDA,035632.01,27,02,1999,00,00*69
$GPGRS,035632.00,1,-0.4,0.2,-0.3,0.1,-0.0,0.2,,,,,,*64
$GPGGA,035633.00,3643.96481055,N,12304.47779874,E,2,06,1.1,5.473,M,8.624,M,2.4,0736*7B
$GPGSV,3,1,11,05,57,280,40,07,11,084,38,29,20,318,39,25,08,276,32*76
$GPGSV,3,2,11,09,16,041,39,02,75,005,40,19,21,162,33,12,09,239,33*74
$GPGSV,3,3,11,13,25,187,38,30,09,116,33,06,41,100,42,,,,*41
$GPGSA,A,3,05,29,09,02,13,06,,,,,,,2.0,1.1,1.6*36
$GPZDA,035633.01,27,02,1999,00,00*68
$GPGRS,035633.00,1,-0.2,0.3,-0.5,0.1,-0.0,0.1,,,,,,*67
$GPGGA,035634.00,3643.96482175,N,12304.47784887,E,2,06,1.1,5.349,M,8.624,M,3.4,0736*7D
$GPGSV,3,1,11,05,57,280,40,07,11,084,38,29,20,318,40,25,08,276,33*79
$GPGSV,3,2,11,09,16,041,39,02,75,005,40,19,21,162,34,12,09,239,35*75
$GPGSV,3,3,11,13,25,187,38,30,09,116,31,06,41,100,43,,,,*42
$GPGSA,A,3,05,29,09,02,13,06,,,,,,,2.0,1.1,1.6*36
$GPZDA,035634.01,27,02,1999,00,00*6F
$GPGRS,035634.00,1,-0.2,0.3,-0.5,0.1,-0.0,0.1,,,,,,*60
$GPGGA,035635.00,3643.96482345,N,12304.47791881,E,2,06,1.1,5.259,M,8.624,M,4.4,0736*78
$GPGSV,3,1,11,05,57,280,40,07,11,084,37,29,20,318,40,25,08,275,32*74
$GPGSV,3,2,11,09,16,041,38,02,75,005,40,19,21,162,34,12,09,239,35*74
$GPGSV,3,3,11,13,25,187,37,30,09,116,31,06,41,100,42,,,,*4C
$GPGSA,A,3,05,29,09,02,13,06,,,,,,,2.0,1.1,1.6*36
$GPZDA,035635.01,27,02,1999,00,00*6E
$GPGRS,035635.00,1,-0.2,0.3,-0.5,0.1,-0.0,0.1,,,,,,*61
$GPGGA,035636.00,3643.96478691,N,12304.47791032,E,2,06,1.1,5.386,M,8.624,M,2.4,0736*77
$GPGSV,3,1,11,05,57,280,41,07,11,084,37,29,20,318,38,25,08,275,33*7B
$GPGSV,3,2,11,09,16,041,39,02,75,005,40,19,21,162,34,12,09,239,35*75
$GPGSV,3,3,11,13,25,187,37,30,09,116,31,06,41,100,43,,,,*4D
$GPGSA,A,3,05,29,09,02,13,06,,,,,,,2.0,1.1,1.6*36
$GPZDA,035636.01,27,02,1999,00,00*6D
$GPGRS,035636.00,1,-0.3,0.4,-0.3,0.1,-0.1,0.2,,,,,,*60
$GPGGA,035637.00,3643.96474951,N,12304.47789354,E,2,06,1.1,5.543,M,8.624,M,3.4,0736*7D
$GPGSV,3,1,11,05,57,280,40,07,11,084,38,29,20,318,39,25,08,275,32*75
$GPGSV,3,2,11,09,16,041,39,02,75,005,41,19,21,162,33,12,09,239,34*72
$GPGSV,3,3,11,13,25,187,37,30,09,116,32,06,41,100,43,,,,*4E
$GPGSA,A,3,05,29,09,02,13,06,,,,,,,2.0,1.1,1.6*36
$GPZDA,035637.01,27,02,1999,00,00*6C
$GPGRS,035637.00,1,-0.3,0.4,-0.3,0.1,-0.1,0.2,,,,,,*61
$GPGGA,035638.00,3643.96471913,N,12304.47788663,E,2,06,1.1,5.557,M,8.624,M,4.4,0736*73
$GPGSV,3,1,11,05,57,280,40,07,11,084,37,29,20,318,41,25,08,275,30*77
$GPGSV,3,2,11,09,16,041,40,02,75,005,40,19,21,162,33,12,09,239,35*7C
$GPGSV,3,3,11,13,25,187,38,30,09,116,32,06,41,100,42,,,,*40
$GPGSA,A,3,05,29,09,02,13,06,,,,,,,2.0,1.1,1.6*36
$GPZDA,035638.01,27,02,1999,00,00*63
$GPGRS,035638.00,1,-0.3,0.4,-0.3,0.1,-0.1,0.2,,,,,,*6E
$GPGGA,035639.00,3643.96471401,N,12304.47788808,E,2,06,1.1,5.553,M,8.624,M,5.4,0736*7A
$GPGSV,3,1,11,05,57,280,41,07,11,084,37,29,20,318,40,25,08,275,33*74
$GPGSV,3,2,11,09,16,041,39,02,75,005,40,19,21,162,32,12,09,239,33*75
$GPGSV,3,3,11,13,25,187,38,30,09,116,33,06,41,100,42,,,,*41
$GPGSA,A,3,05,29,09,02,13,06,,,,,,,2.0,1.1,1.6*36
$GPZDA,035639.01,27,02,1999,00,00*62
$GPGRS,035639.00,1,-0.3,0.5,-0.3,0.1,-0.1,0.2,,,,,,*6E
$GPGGA,035640.00,3643.96473549,N,12304.47787880,E,2,06,1.1,5.570,M,8.624,M,3.4,0736*73
$GPGSV,3,1,11,05,57,280,39,07,11,084,37,29,20,318,41,25,08,275,32*7B
$GPGSV,3,2,11,09,16,041,39,02,75,005,39,19,21,162,33,12,09,239,37*7E
$GPGSV,3,3,11,13,25,187,39,30,09,116,31,06,41,100,42,,,,*42
$GPGSA,A,3,05,29,09,02,13,06,,,,,,,2.0,1.1,1.6*36
$GPZDA,035640.01,27,02,1999,00,00*6C
$GPGRS,035640.00,1,-0.3,0.3,-0.4,0.1,-0.0,0.2,,,,,,*60
$GPGGA,035641.00,3643.96474813,N,12304.47787528,E,2,06,1.1,5.618,M,8.624,M,4.4,0736*72
$GPGSV,3,1,11,05,57,280,39,07,11,084,38,29,20,318,40,25,08,275,31*76
$GPGSV,3,2,11,09,16,041,38,02,75,005,40,19,21,162,33,12,09,239,36*70
$GPGSV,3,3,11,13,25,187,38,30,09,116,32,06,41,100,42,,,,*40
$GPGSA,A,3,05,29,09,02,13,06,,,,,,,2.0,1.1,1.6*36
$GPZDA,035641.01,27,02,1999,00,00*6D
$GPGRS,035641.00,1,-0.3,0.3,-0.4,0.1,-0.0,0.2,,,,,,*61
$GPGGA,035642.00,3643.96474248,N,12304.47787686,E,2,06,1.1,5.563,M,8.624,M,2.4,0736*7B
$GPGSV,3,1,11,05,57,280,40,07,11,084,37,29,20,318,41,25,08,275,32*75
$GPGSV,3,2,11,09,16,041,38,02,75,005,40,19,21,162,33,12,09,239,33*75
$GPGSV,3,3,11,13,25,187,38,30,09,116,32,06,41,100,42,,,,*40
$GPGSA,A,3,05,29,09,02,13,06,,,,,,,2.0,1.1,1.6*36
$GPZDA,035642.02,27,02,1999,00,00*6D
$GPGRS,035642.00,1,-0.3,0.4,-0.3,0.1,-0.0,0.2,,,,,,*62
$GPGGA,035643.00,3643.96473081,N,12304.47788087,E,2,06,1.1,5.541,M,8.624,M,3.4,0736*73
$GPGSV,3,1,11,05,57,280,40,07,11,084,38,29,20,318,39,25,08,275,32*75
$GPGSV,3,2,11,09,16,041,39,02,75,006,40,19,21,162,33,12,09,239,35*71
$GPGSV,3,3,11,13,25,187,38,30,09,116,31,06,41,100,42,,,,*43
$GPGSA,A,3,05,29,09,02,13,06,,,,,,,2.0,1.1,1.6*36
$GPZDA,035643.01,27,02,1999,00,00*6F
$GPGRS,035643.00,1,-0.3,0.4,-0.3,0.1,-0.0,0.2,,,,,,*63
$GPGGA,035644.00,3643.96471567,N,12304.47789302,E,2,06,1.1,5.564,M,8.624,M,4.4,0736*74
$GPGSV,3,1,11,05,57,280,40,07,11,084,38,29,20,318,39,25,08,275,32*75
$GPGSV,3,2,11,09,16,041,39,02,75,006,40,19,21,162,33,12,09,239,34*70
$GPGSV,3,3,11,13,25,187,38,30,09,116,32,06,41,100,43,,,,*41
$GPGSA,A,3,05,29,09,02,13,06,,,,,,,2.0,1.1,1.6*36
$GPZDA,035644.01,27,02,1999,00,00*68
$GPGRS,035644.00,1,-0.3,0.4,-0.3,0.1,-0.0,0.2,,,,,,*64
$GPGGA,035645.00,3643.96471774,N,12304.47787965,E,2,06,1.1,5.459,M,8.624,M,2.4,0736*79
$GPGSV,3,1,11,05,57,280,40,07,11,084,38,29,20,318,40,25,08,275,33*7A
$GPGSV,3,2,11,09,16,041,39,02,75,006,40,19,21,162,34,12,09,239,35*76
$GPGSV,3,3,11,13,25,187,38,30,09,116,31,06,41,100,43,,,,*42
$GPGSA,A,3,05,29,09,02,13,06,,,,,,,2.0,1.1,1.6*36
$GPZDA,035645.01,27,02,1999,00,00*69
$GPGRS,035645.00,1,-0.3,0.3,-0.4,0.1,-0.0,0.2,,,,,,*65
$GPGGA,035646.00,3643.96471134,N,12304.47788969,E,2,06,1.1,5.431,M,8.624,M,3.4,0736*74
$GPGSV,3,1,11,05,57,280,40,07,11,084,37,29,20,318,40,25,08,275,32*74
$GPGSV,3,2,11,09,16,041,39,02,75,006,40,19,21,162,34,12,09,239,36*75
$GPGSV,3,3,11,13,25,187,38,30,09,116,31,06,41,100,43,,,,*42
$GPGSA,A,3,05,29,09,02,13,06,,,,,,,2.0,1.1,1.6*36
$GPZDA,035646.01,27,02,1999,00,00*6A
$GPGRS,035646.00,1,-0.3,0.3,-0.4,0.1,-0.0,0.2,,,,,,*66
$GPGGA,035647.00,3643.96471446,N,12304.47788445,E,2,06,1.1,5.480,M,8.624,M,4.4,0736*7B
$GPGSV,3,1,11,05,57,280,40,07,11,084,37,29,20,318,40,25,08,275,32*74
$GPGSV,3,2,11,09,16,041,39,02,75,006,41,19,21,162,33,12,09,239,35*70
$GPGSV,3,3,11,13,25,187,38,30,09,116,30,06,41,100,43,,,,*43
$GPGSA,A,3,05,29,09,02,13,06,,,,,,,2.0,1.1,1.6*36
$GPZDA,035647.01,27,02,1999,00,00*6B
$GPGRS,035647.00,1,-0.3,0.2,-0.4,0.1,-0.1,0.2,,,,,,*67
$GPGGA,035648.00,3643.96472088,N,12304.47784360,E,2,06,1.1,5.522,M,8.624,M,5.4,0736*75
$GPGSV,3,1,11,05,57,280,40,07,11,084,37,29,20,318,40,25,08,275,34*72
$GPGSV,3,2,11,09,16,041,38,02,75,006,40,19,21,162,34,12,09,239,35*77
$GPGSV,3,3,11,13,25,187,37,30,09,116,30,06,41,100,42,,,,*4D
$GPGSA,A,3,05,29,09,02,13,06,,,,,,,2.0,1.1,1.6*36
$GPZDA,035648.01,27,02,1999,00,00*64
$GPGRS,035648.00,1,-0.3,0.2,-0.4,0.1,-0.1,0.2,,,,,,*68
$GPGGA,035649.00,3643.96470726,N,12304.47781828,E,2,06,1.1,5.537,M,8.624,M,3.4,0736*75
$GPGSV,3,1,11,05,57,280,40,07,11,084,37,29,20,318,39,25,08,275,32*7A
$GPGSV,3,2,11,09,16,041,38,02,75,006,40,19,21,162,33,12,09,239,34*71
$GPGSV,3,3,11,13,25,187,37,30,09,116,31,06,41,100,42,,,,*4C
$GPGSA,A,3,05,29,09,02,13,06,,,,,,,2.0,1.1,1.6*36
$GPZDA,035649.01,27,02,1999,00,00*65
$GPGRS,035649.00,1,-0.3,0.3,-0.4,0.2,-0.1,0.3,,,,,,*6A
$GPGGA,035650.00,3643.96469609,N,12304.47782962,E,2,06,1.1,5.454,M,8.624,M,4.4,0736*76
$GPGSV,3,1,11,05,57,280,39,07,11,084,38,29,20,318,40,25,08,275,32*75
$GPGSV,3,2,11,09,16,041,39,02,75,006,40,19,21,162,34,12,09,239,35*76
$GPGSV,3,3,11,13,25,187,37,30,09,116,32,06,41,100,42,,,,*4F
$GPGSA,A,3,05,29,09,02,13,06,,,,,,,2.0,1.1,1.6*36
$GPZDA,035650.01,27,02,1999,00,00*6D
$GPGRS,035650.00,1,-0.3,0.3,-0.4,0.2,-0.1,0.3,,,,,,*62
$GPGGA,035651.00,3643.96471646,N,12304.47785353,E,2,06,1.1,5.370,M,8.624,M,2.4,0736*7D
$GPGSV,3,1,11,05,57,280,40,07,11,084,37,29,20,318,40,25,08,275,32*74
$GPGSV,3,2,11,09,16,041,39,02,75,006,40,19,21,162,34,12,09,239,37*74
$GPGSV,3,3,11,13,25,187,38,30,09,116,30,06,41,100,42,,,,*42
$GPGSA,A,3,05,29,09,02,13,06,,,,,,,2.0,1.1,1.6*36
$GPZDA,035651.01,27,02,1999,00,00*6C
$GPGRS,035651.00,1,-0.3,0.3,-0.5,0.1,-0.0,0.4,,,,,,*67
$GPGGA,035652.00,3643.96473835,N,12304.47785243,E,2,06,1.1,5.407,M,8.624,M,3.4,0736*70
$GPGSV,3,1,11,05,57,280,40,07,11,084,38,29,20,318,39,25,08,275,34*73
$GPGSV,3,2,11,09,16,041,39,02,75,006,41,19,21,162,34,12,09,239,37*75
$GPGSV,3,3,11,13,25,187,38,30,09,116,30,06,41,100,42,,,,*42
$GPGSA,A,3,05,29,09,02,13,06,,,,,,,2.0,1.1,1.6*36
$GPZDA,035652.01,27,02,1999,00,00*6F
$GPGRS,035652.00,1,-0.3,0.3,-0.5,0.2,-0.0,0.4,,,,,,*67
$GPGGA,035653.00,3643.96474577,N,12304.47782712,E,2,06,1.1,5.481,M,8.624,M,4.4,0736*72
$GPGSV,3,1,11,05,57,280,40,07,11,084,38,29,20,318,39,25,08,275,32*75
$GPGSV,3,2,11,09,16,041,39,02,75,006,40,19,21,162,33,12,09,239,35*71
$GPGSV,3,3,11,13,25,187,37,30,09,116,32,06,41,100,42,,,,*4F
$GPGSA,A,3,05,29,09,02,13,06,,,,,,,2.0,1.1,1.6*36
$GPZDA,035653.01,27,02,1999,00,00*6E
$GPGRS,035653.00,1,-0.3,0.3,-0.5,0.2,-0.0,0.4,,,,,,*66
$GPGGA,035654.00,3643.96474641,N,12304.47782716,E,2,06,1.1,5.514,M,8.624,M,2.4,0736*7C
$GPGSV,3,1,11,05,57,280,40,07,11,084,38,29,20,318,39,25,08,275,33*74
$GPGSV,3,2,11,09,16,041,39,02,75,006,40,19,21,162,33,12,09,239,34*70
$GPGSV,3,3,11,13,25,187,37,30,09,116,32,06,41,100,42,,,,*4F
$GPGSA,A,3,05,29,09,02,13,06,,,,,,,2.0,1.1,1.6*36
$GPZDA,035654.01,27,02,1999,00,00*69
$GPGRS,035654.00,1,-0.3,0.3,-0.6,0.1,-0.1,0.3,,,,,,*67
$GPGGA,035655.00,3643.96473482,N,12304.47786364,E,2,06,1.1,5.588,M,8.624,M,3.4,0736*76
$GPGSV,3,1,11,05,57,280,40,07,11,084,37,29,20,318,40,25,08,275,32*74
$GPGSV,3,2,11,09,16,041,39,02,75,006,40,19,21,162,33,12,09,239,35*71
$GPGSV,3,3,11,13,25,187,37,30,09,116,30,06,41,100,42,,,,*4D
$GPGSA,A,3,05,29,09,02,13,06,,,,,,,2.0,1.1,1.6*36
$GPZDA,035655.01,27,02,1999,00,00*68
$GPGRS,035655.00,1,-0.3,0.3,-0.6,0.1,-0.1,0.3,,,,,,*66
$GPGGA,035656.00,3643.96472846,N,12304.47788923,E,2,06,1.1,5.620,M,8.624,M,4.4,0736*71
$GPGSV,3,1,11,05,57,280,40,07,11,084,38,29,20,318,40,25,08,275,32*7B
$GPGSV,3,2,11,09,16,041,39,02,75,006,40,19,21,162,33,12,09,239,35*71
$GPGSV,3,3,11,13,25,187,37,30,09,116,32,06,41,100,43,,,,*4E
$GPGSA,A,3,05,29,09,02,13,06,,,,,,,2.0,1.1,1.6*36
$GPZDA,035656.01,27,02,1999,00,00*6B
$GPGRS,035656.00,1,-0.3,0.3,-0.6,0.1,-0.1,0.3,,,,,,*65
$GPGGA,035657.00,3643.96473135,N,12304.47791163,E,2,06,1.1,5.607,M,8.624,M,5.4,0736*7C
$GPGSV,3,1,11,05,57,280,40,07,11,084,38,29,20,318,39,25,08,275,33*74
$GPGSV,3,2,11,09,16,041,38,02,75,006,41,19,21,162,33,12,09,239,37*73
$GPGSV,3,3,11,13,25,187,38,30,09,116,31,06,41,100,43,,,,*42
$GPGSA,A,3,05,29,09,02,13,06,,,,,,,2.0,1.1,1.6*36
$GPZDA,035657.02,27,02,1999,00,00*69
$GPGRS,035657.00,1,-0.3,0.3,-0.6,0.1,-0.1,0.3,,,,,,*64
$GPGGA,035658.00,3643.96473063,N,12304.47792536,E,2,06,1.1,5.699,M,8.624,M,3.4,0736*77
$GPGSV,3,1,11,05,57,280,40,07,11,084,36,29,20,318,41,25,08,275,32*74
$GPGSV,3,2,11,09,16,041,39,02,75,006,40,19,21,162,34,12,09,239,35*76
$GPGSV,3,3,11,13,25,187,37,30,09,116,31,06,41,100,43,,,,*4D
$GPGSA,A,3,05,29,09,02,13,06,,,,,,,2.0,1.1,1.6*36
$GPZDA,035658.01,27,02,1999,00,00*65
$GPGRS,035658.00,1,-0.3,0.4,-0.4,0.1,-0.1,0.3,,,,,,*6E
$GPGGA,035659.00,3643.96473717,N,12304.47790658,E,2,06,1.1,5.764,M,8.624,M,4.4,0736*7F
$GPGSV,3,1,11,05,57,280,40,07,11,084,38,29,20,318,41,25,08,275,31*79
$GPGSV,3,2,11,09,16,041,38,02,75,006,40,19,21,162,34,12,09,239,36*74
$GPGSV,3,3,11,13,25,187,38,30,09,116,30,06,41,100,42,,,,*42
$GPGSA,A,3,05,29,09,02,13,06,,,,,,,2.0,1.1,1.6*36
$GPZDA,035659.01,27,02,1999,00,00*64
$GPGRS,035659.00,1,-0.3,0.4,-0.4,0.1,-0.1,0.3,,,,,,*6F
$GPGGA,035700.00,3643.96474672,N,12304.47790015,E,2,06,1.1,5.762,M,8.624,M,2.4,0736*78
$GPGSV,3,1,11,05,57,280,40,07,11,084,38,29,20,318,40,25,08,275,34*7D
$GPGSV,3,2,11,09,16,041,38,02,75,006,40,19,21,162,33,12,09,239,35*70
$GPGSV,3,3,11,13,25,187,38,30,09,116,31,06,41,100,43,,,,*42
$GPGSA,A,3,05,29,09,02,13,06,,,,,,,2.0,1.1,1.6*36
$GPZDA,035700.01,27,02,1999,00,00*69
$GPGRS,035700.00,1,-0.3,0.3,-0.5,0.1,-0.1,0.3,,,,,,*64
$GPGGA,035701.00,3643.96475876,N,12304.47788189,E,2,06,1.1,5.735,M,8.624,M,3.4,0736*7C
$GPGSV,3,1,11,05,57,280,40,07,11,084,37,29,20,318,40,25,08,275,33*75
$GPGSV,3,2,11,09,16,041,39,02,75,006,40,19,21,162,33,12,09,239,36*72
$GPGSV,3,3,11,13,25,187,38,30,09,116,31,06,41,100,42,,,,*43
$GPGSA,A,3,05,29,09,02,13,06,,,,,,,2.0,1.1,1.6*36
$GPZDA,035701.01,27,02,1999,00,00*68
$GPGRS,035701.00,1,-0.3,0.3,-0.5,0.1,-0.1,0.3,,,,,,*65
$GPGGA,035702.00,3643.96476503,N,12304.47787915,E,2,06,1.1,5.737,M,8.624,M,4.4,0736*74
$GPGSV,3,1,11,05,57,280,40,07,11,084,38,29,20,318,40,25,08,275,32*7B
$GPGSV,3,2,11,09,16,041,39,02,75,006,41,19,21,162,33,12,09,239,37*72
$GPGSV,3,3,11,13,25,187,38,30,09,116,32,06,41,100,42,,,,*40
$GPGSA,A,3,05,29,09,02,13,06,,,,,,,2.0,1.1,1.6*36
$GPZDA,035702.01,27,02,1999,00,00*6B
$GPGRS,035702.00,1,-0.3,0.3,-0.5,0.1,-0.1,0.3,,,,,,*66
$GPGGA,035703.00,3643.96476333,N,12304.47789420,E,2,06,1.1,5.675,M,8.624,M,5.4,0736*73
$GPGSV,3,1,11,05,57,280,40,07,11,084,38,29,20,318,40,25,08,275,33*7A
$GPGSV,3,2,11,09,16,041,39,02,75,006,40,19,21,162,33,12,09,239,38*7C
$GPGSV,3,3,11,13,25,187,39,30,09,115,30,06,41,100,43,,,,*41
$GPGSA,A,3,05,29,09,02,13,06,,,,,,,2.0,1.1,1.6*36
$GPZDA,035703.01,27,02,1999,00,00*6A
$GPGRS,035703.00,1,-0.3,0.3,-0.5,0.1,-0.1,0.4,,,,,,*60
$GPGGA,035704.00,3643.96474346,N,12304.47791960,E,2,06,1.1,5.698,M,8.624,M,6.4,0736*74
$GPGSV,3,1,11,05,57,280,40,07,11,084,37,29,20,318,40,25,08,275,33*75
$GPGSV,3,2,11,09,16,041,39,02,75,006,40,19,21,162,34,12,09,239,35*76
$GPGSV,3,3,11,13,25,187,38,30,09,115,31,06,41,100,42,,,,*40
$GPGSA,A,3,05,29,09,02,13,06,,,,,,,2.0,1.1,1.6*36
$GPZDA,035704.01,27,02,1999,00,00*6D
$GPGRS,035704.00,1,-0.3,0.3,-0.5,0.1,-0.1,0.4,,,,,,*67
$GPGGA,035705.00,3643.96475068,N,12304.47788579,E,2,06,1.1,5.768,M,8.624,M,7.4,0736*78
$GPGSV,3,1,11,05,57,280,41,07,11,084,38,29,20,318,38,25,08,275,31*76
$GPGSV,3,2,11,09,16,041,39,02,75,006,41,19,21,162,33,12,09,239,36*73
$GPGSV,3,3,11,13,25,187,38,30,09,115,32,06,41,100,42,,,,*43
$GPGSA,A,3,05,29,09,02,13,06,,,,,,,2.0,1.1,1.6*36
$GPZDA,035705.01,27,02,1999,00,00*6C
$GPGRS,035705.00,1,-0.3,0.3,-0.5,0.1,-0.0,0.4,,,,,,*67
$GPGGA,035706.00,3643.96477539,N,12304.47784863,E,2,06,1.1,5.712,M,8.624,M,8.4,0736*70
$GPGSV,3,1,11,05,57,280,40,07,11,084,37,29,20,318,40,25,08,275,32*74
$GPGSV,3,2,11,09,16,041,39,02,75,006,41,19,21,162,33,12,09,239,37*72
$GPGSV,3,3,11,13,25,187,37,30,09,115,33,06,41,100,42,,,,*4D
$GPGSA,A,3,05,29,09,02,13,06,,,,,,,2.0,1.1,1.6*36
$GPZDA,035706.01,27,02,1999,00,00*6F
$GPGRS,035706.00,1,-0.3,0.3,-0.5,0.1,-0.0,0.4,,,,,,*64
$GPGGA,035707.00,3643.96478835,N,12304.47785750,E,2,06,1.1,5.651,M,8.624,M,3.4,0736*7C
$GPGSV,3,1,11,05,57,280,40,07,11,084,36,29,20,318,37,25,08,275,32*75
$GPGSV,3,2,11,09,16,041,38,02,75,006,41,19,21,162,33,12,09,239,37*73
$GPGSV,3,3,11,13,25,187,37,30,09,115,31,06,41,100,42,,,,*4F
$GPGSA,A,3,05,29,09,02,13,06,,,,,,,2.0,1.1,1.6*36
$GPZDA,035707.01,27,02,1999,00,00*6E
$GPGRS,035707.00,1,-0.4,0.2,-0.5,0.1,-0.0,0.4,,,,,,*63
$GPGGA,035708.00,3643.96478024,N,12304.47787361,E,2,06,1.1,5.672,M,8.624,M,4.4,0736*79
$GPGSV,3,1,11,05,57,280,40,07,11,084,37,29,20,318,41,25,08,275,32*75
$GPGSV,3,2,11,09,16,041,39,02,75,006,41,19,21,162,33,12,09,239,37*72
$GPGSV,3,3,11,13,25,187,38,30,09,115,30,06,41,100,42,,,,*41
$GPGSA,A,3,05,29,09,02,13,06,,,,,,,2.0,1.1,1.6*36
$GPZDA,035708.01,27,02,1999,00,00*61
$GPGRS,035708.00,1,-0.4,0.2,-0.5,0.1,-0.0,0.4,,,,,,*6C
$GPGGA,035709.00,3643.96473419,N,12304.47786023,E,2,06,1.1,5.859,M,8.624,M,2.4,0736*7C
$GPGSV,3,1,11,05,57,280,40,07,11,084,36,29,20,318,39,25,08,275,29*71
$GPGSV,3,2,11,09,16,041,39,02,75,006,40,19,21,162,33,12,09,239,35*71
$GPGSV,3,3,11,13,25,187,37,30,09,115,32,06,41,100,42,,,,*4C
$GPGSA,A,3,05,29,09,02,13,06,,,,,,,2.0,1.1,1.6*36
$GPZDA,035709.01,27,02,1999,00,00*60
$GPGRS,035709.00,1,-0.3,0.4,-0.5,0.1,-0.1,0.4,,,,,,*6D
$GPGGA,035710.00,3643.96471638,N,12304.47782430,E,2,06,1.1,5.916,M,8.624,M,3.4,0736*7E
$GPGSV,3,1,11,05,57,280,40,07,11,084,36,29,20,318,40,25,08,275,32*75
$GPGSV,3,2,11,09,16,041,39,02,75,006,41,19,21,162,33,12,09,239,35*70
$GPGSV,3,3,11,13,25,187,38,30,09,115,31,06,41,100,42,,,,*40
$GPGSA,A,3,05,29,09,02,13,06,,,,,,,2.0,1.1,1.6*36
$GPZDA,035710.01,27,02,1999,00,00*68
$GPGRS,035710.00,1,-0.3,0.4,-0.5,0.2,-0.1,0.4,,,,,,*66
$GPGGA,035711.00,3643.96470680,N,12304.47778601,E,2,06,1.1,5.937,M,8.624,M,4.4,0736*7C
$GPGSV,3,1,11,05,57,280,41,07,11,084,38,29,20,318,39,25,08,275,32*74
$GPGSV,3,2,11,09,16,041,38,02,75,006,40,19,21,162,34,12,09,239,37*75
$GPGSV,3,3,11,13,25,187,38,30,09,115,32,06,41,100,42,,,,*43
$GPGSA,A,3,05,29,09,02,13,06,,,,,,,2.0,1.1,1.6*36
$GPZDA,035711.01,27,02,1999,00,00*69
$GPGRS,035711.00,1,-0.3,0.4,-0.5,0.2,-0.2,0.4,,,,,,*64
$GPGGA,035712.00,3643.96469993,N,12304.47778354,E,2,06,1.1,5.954,M,8.624,M,5.4,0736*7B
$GPGSV,3,1,11,05,57,280,41,07,11,084,37,29,20,318,39,25,08,275,33*7A
$GPGSV,3,2,11,09,16,041,38,02,75,006,40,19,21,162,34,12,09,239,37*75
$GPGSV,3,3,11,13,25,187,39,30,09,115,33,06,41,100,42,,,,*43
$GPGSA,A,3,05,29,09,02,13,06,,,,,,,2.0,1.1,1.6*36
$GPZDA,035712.02,27,02,1999,00,00*69
$GPGRS,035712.00,1,-0.3,0.4,-0.5,0.2,-0.2,0.4,,,,,,*67
$GPGGA,035713.00,3643.96469496,N,12304.47780906,E,2,06,1.1,5.887,M,8.624,M,3.4,0736*71
$GPGSV,3,1,11,05,57,280,40,07,11,084,38,29,20,318,39,25,08,275,32*75
$GPGSV,3,2,11,09,16,041,38,02,75,006,41,19,21,162,33,12,09,239,36*72
$GPGSV,3,3,11,13,25,187,38,30,09,115,31,06,41,100,42,,,,*40
$GPGSA,A,3,05,29,09,02,13,06,,,,,,,2.0,1.1,1.6*36
$GPZDA,035713.01,27,02,1999,00,00*6B
$GPGRS,035713.00,1,-0.3,0.3,-0.5,0.2,-0.0,0.4,,,,,,*63
$GPGGA,035714.00,3643.96468713,N,12304.47780731,E,2,06,1.1,5.859,M,8.624,M,4.4,0736*77
$GPGSV,3,1,11,05,57,280,41,07,11,084,37,29,20,318,39,25,08,275,32*7B
$GPGSV,3,2,11,09,16,041,38,02,75,006,41,19,21,162,33,12,09,239,36*72
$GPGSV,3,3,11,13,25,187,38,30,09,115,30,06,41,100,42,,,,*41
$GPGSA,A,3,05,29,09,02,13,06,,,,,,,2.0,1.1,1.6*36
$GPZDA,035714.01,27,02,1999,00,00*6C
$GPGRS,035714.00,1,-0.3,0.3,-0.5,0.2,-0.0,0.4,,,,,,*64
$GPGGA,035715.00,3643.96468023,N,12304.47779612,E,2,06,1.1,5.921,M,8.624,M,5.4,0736*7B
$GPGSV,3,1,11,05,57,280,40,07,11,084,37,29,20,318,38,25,08,275,32*7B
$GPGSV,3,2,11,09,16,041,38,02,75,006,41,19,21,162,33,12,09,239,35*71
$GPGSV,3,3,11,13,25,187,38,30,09,115,31,06,41,100,43,,,,*41
$GPGSA,A,3,05,29,09,02,13,06,,,,,,,2.0,1.1,1.6*36
$GPZDA,035715.01,27,02,1999,00,00*6D
$GPGRS,035715.00,1,-0.3,0.3,-0.5,0.2,-0.0,0.4,,,,,,*65
$GPGGA,035716.00,3643.96467745,N,12304.47781808,E,2,06,1.1,5.916,M,8.624,M,3.4,0736*70
$GPGSV,3,1,11,05,57,280,41,07,11,084,37,29,20,318,40,25,08,275,33*74
$GPGSV,3,2,11,09,16,041,38,02,75,006,41,19,21,162,33,12,09,239,36*72
$GPGSV,3,3,11,13,25,187,38,30,09,115,31,06,41,100,42,,,,*40
$GPGSA,A,3,05,29,09,02,13,06,,,,,,,2.0,1.1,1.6*36
$GPZDA,035716.01,27,02,1999,00,00*6E
$GPGRS,035716.00,1,-0.3,0.4,-0.6,0.1,-0.1,0.3,,,,,,*67
$GPGGA,035717.00,3643.96467730,N,12304.47784097,E,2,06,1.1,5.875,M,8.624,M,4.4,0736*7B
$GPGSV,3,1,11,05,57,280,40,07,11,084,37,29,20,318,39,25,08,275,32*7A
$GPGSV,3,2,11,09,16,041,38,02,75,006,40,19,21,162,33,12,08,239,37*73
$GPGSV,3,3,11,13,25,187,39,30,09,115,32,06,41,100,42,,,,*42
$GPGSA,A,3,05,29,09,02,13,06,,,,,,,2.0,1.1,1.6*36
$GPZDA,035717.01,27,02,1999,00,00*6F
$GPGRS,035717.00,1,-0.3,0.4,-0.7,0.1,-0.1,0.3,,,,,,*67
$GPGGA,035718.00,3643.96467130,N,12304.47788616,E,2,06,1.1,5.896,M,8.624,M,2.4,0736*7A
$GPGSV,3,1,11,05,57,280,40,07,11,084,37,29,20,318,40,25,08,275,33*75
$GPGSV,3,2,11,09,16,041,38,02,75,006,41,19,21,162,33,12,08,239,36*73
$GPGSV,3,3,11,13,25,187,38,30,09,115,31,06,41,100,42,,,,*40
$GPGSA,A,3,05,29,09,02,13,06,,,,,,,2.0,1.1,1.6*36
$GPZDA,035718.01,27,02,1999,00,00*60
$GPGRS,035718.00,1,-0.3,0.4,-0.4,0.1,-0.1,0.3,,,,,,*6B
$GPGGA,035719.00,3643.96466253,N,12304.47791457,E,2,06,1.1,5.899,M,8.624,M,3.4,0736*7D
$GPGSV,3,1,11,05,57,280,39,07,11,084,38,29,20,318,39,25,08,275,32*7B
$GPGSV,3,2,11,09,16,041,38,02,75,006,41,19,21,162,33,12,08,239,36*73
$GPGSV,3,3,11,13,25,187,38,30,09,115,30,06,41,100,42,,,,*41
$GPGSA,A,3,05,29,09,02,13,06,,,,,,,2.0,1.1,1.6*36
$GPZDA,035719.01,27,02,1999,00,00*61
$GPGRS,035719.00,1,-0.3,0.4,-0.4,0.1,-0.1,0.3,,,,,,*6A
$GPGGA,035720.00,3643.96465874,N,12304.47790505,E,2,06,1.1,5.930,M,8.624,M,4.4,0736*79
$GPGSV,3,1,11,05,57,280,40,07,11,084,37,29,20,318,40,25,08,275,31*77
$GPGSV,3,2,11,09,16,041,38,02,75,006,41,19,21,162,33,12,08,239,35*70
$GPGSV,3,3,11,13,25,187,37,30,09,115,31,06,41,100,42,,,,*4F
$GPGSA,A,3,05,29,09,02,13,06,,,,,,,2.0,1.1,1.6*36
$GPZDA,035720.01,27,02,1999,00,00*6B
$GPGRS,035720.00,1,-0.3,0.4,-0.4,0.1,-0.1,0.3,,,,,,*60
$GPGGA,035721.00,3643.96465561,N,12304.47787614,E,2,06,1.1,5.980,M,8.624,M,5.4,0736*7E
$GPGSV,3,1,11,05,57,280,40,07,11,084,38,29,20,318,39,25,08,275,33*74
$GPGSV,3,2,11,09,16,041,39,02,75,006,40,19,21,162,34,12,08,239,37*75
$GPGSV,3,3,11,13,25,187,38,30,09,115,31,06,41,100,42,,,,*40
$GPGSA,A,3,05,29,09,02,13,06,,,,,,,2.0,1.1,1.6*36
$GPZDA,035721.01,27,02,1999,00,00*6A
$GPGRS,035721.00,1,-0.3,0.4,-0.4,0.1,-0.1,0.3,,,,,,*61
$GPGGA,035722.00,3643.96465789,N,12304.47787872,E,2,06,1.1,5.938,M,8.624,M,3.4,0736*72
$GPGSV,3,1,11,05,57,280,41,07,11,084,37,29,20,318,41,25,08,275,32*74
$GPGSV,3,2,11,09,16,041,38,02,75,006,40,19,21,162,33,12,08,239,37*73
$GPGSV,3,3,11,13,25,187,37,30,09,115,32,06,41,100,42,,,,*4C
$GPGSA,A,3,05,29,09,02,13,06,,,,,,,2.0,1.1,1.6*36
$GPZDA,035722.01,27,02,1999,00,00*69
$GPGRS,035722.00,1,-0.4,0.3,-0.5,0.1,-0.1,0.3,,,,,,*63
$GPGGA,035723.00,3643.96465918,N,12304.47789902,E,2,06,1.1,5.907,M,8.624,M,4.4,0736*76
$GPGSV,3,1,11,05,57,280,40,07,11,084,37,29,20,318,40,25,08,275,31*77
$GPGSV,3,2,11,09,16,041,39,02,75,006,40,19,21,162,33,12,08,239,37*72
$GPGSV,3,3,11,13,25,187,38,30,09,115,31,06,41,100,41,,,,*43
$GPGSA,A,3,05,29,09,02,13,06,,,,,,,2.0,1.1,1.6*36
$GPZDA,035723.01,27,02,1999,00,00*68
$GPGRS,035723.00,1,-0.4,0.3,-0.5,0.1,-0.1,0.3,,,,,,*62
$GPGGA,035724.00,3643.96466107,N,12304.47791048,E,2,06,1.1,5.962,M,8.624,M,5.4,0736*78
$GPGSV,3,1,11,05,57,280,40,07,11,084,37,29,20,318,40,25,08,275,33*75
$GPGSV,3,2,11,09,16,041,39,02,75,006,40,19,21,162,33,12,08,239,35*70
$GPGSV,3,3,11,13,25,187,38,30,09,115,30,06,41,100,42,,,,*41
$GPGSA,A,3,05,29,09,02,13,06,,,,,,,2.0,1.1,1.6*36
$GPZDA,035724.01,27,02,1999,00,00*6F
$GPGRS,035724.00,1,-0.4,0.3,-0.5,0.1,-0.1,0.3,,,,,,*65
$GPGGA,035725.00,3643.96464582,N,12304.47785928,E,2,06,1.1,6.053,M,8.624,M,3.4,0736*76
$GPGSV,3,1,11,05,57,280,40,07,11,084,38,29,20,318,40,25,08,275,32*7B
$GPGSV,3,2,11,09,16,041,38,02,75,006,40,19,21,162,32,12,08,239,37*72
